stop_id,stop_code,stop_name,stop_desc,stop_lat,stop_lon,zone_id,stop_url,location_type,parent_station,stop_timezone,wheelchair_boarding
50101,50101,R. F. Lopes Graça / R. Prof. A. Sousa,,38.76968170,-9.17041900,,,0,,,
50102,50102,Hosp. Forças Armadas,,38.76901720,-9.17502060,,,0,,,
14723,14723,Av. Dr. Arlindo Vicente,,38.75362870,-9.12593280,,,0,,,
14722,14722,Av. Dr. Arlindo Vicente,,38.75255370,-9.12624960,,,0,,,
14721,14721,Av. Dr. Arlindo Vicente,,38.75290270,-9.12626780,,,0,,,
14720,14720,Colégio Valsassina,,38.75537970,-9.12637480,,,0,,,
14727,14727,B. Flamenga,,38.75228070,-9.12320380,,,0,,,
14726,14726,Pq. Bela Vista,,38.75106770,-9.12454880,,,0,,,
14725,14725,Pq. Bela Vista,,38.75104470,-9.12479880,,,0,,,
14724,14724,Av. Dr. Arlindo Vicente,,38.75370370,-9.12602580,,,0,,,
14729,14729,Av. Avelino Teixeira Mota (CERCI),,38.75209670,-9.12130680,,,0,,,
14728,14728,B. Flamenga,,38.75266270,-9.12299580,,,0,,,
2008,2008,Campo Grande,,38.75212670,-9.15124280,,,0,,,
6503,6503,Jardim Constantino,,38.73084570,-9.13770380,,,0,,,
7409,7409,Lg. Frei Heitor Pinto,,38.75462770,-9.13852980,,,0,,,
3008,3008,R. Gen. Fernando Tamagnini,,38.74531670,-9.22199280,,,0,,,
3018,3018,Estação Damaia,,38.74813190,-9.21517120,,,0,,,
7503,7503,Av. Mar. Gomes Costa (Qta. Teresinhas),,38.76118070,-9.12176580,,,0,,,
7513,7513,Av. Brasil (Rot. Relógio),,38.76225070,-9.13025080,,,0,,,
14125,14125,R. Rio Cávado (C. Cultural),,38.76979470,-9.19105580,,,0,,,
14120,14120,B. Padre Cruz,,38.76925120,-9.18922280,,,0,,,
1409,1409,Av. Marquês Tomar,,38.73655070,-9.15058080,,,0,,,
4509,4509,Sul e Sueste,,38.70719510,-9.13344810,,,0,,,
1503,1503,Pç. Espanha / Av. Berna,,38.73873970,-9.15403380,,,0,,,
1513,1513,R. Tenente Espanca,,38.73915470,-9.15524680,,,0,,,
2409,2409,Parque Nações Sul,,38.75531120,-9.09685090,,,0,,,
5519,5519,Pç. Comércio,,38.70890130,-9.13600740,,,0,,,
21304,21304,Montes Claros,,38.71784170,-9.19930180,,,0,,,
21305,21305,Pq. Infantil Alvito,,38.72022030,-9.18541340,,,0,,,
21306,21306,Pq. Infantil Alvito,,38.71998460,-9.18540140,,,0,,,
21307,21307,Estr. Alvito / Al. Keil Amaral,,38.72273800,-9.18659650,,,0,,,
21301,21301,Alto Moinhos,,38.72173570,-9.19710780,,,0,,,
21302,21302,Alto Moinhos,,38.72208270,-9.19677780,,,0,,,
21303,21303,Montes Claros,,38.71774270,-9.19955680,,,0,,,
21308,21308,Estr. Alvito / Al. Keil Amaral,,38.72261270,-9.18667140,,,0,,,
13630,13630,Hosp. Lusíadas,,38.75025220,-9.18060210,,,0,,,
5607,5607,R. Prata,,38.71107820,-9.13690460,,,0,,,
4218,4218,Algés - Pç. D. Manuel I,,38.69950670,-9.22848980,,,0,,,
4208,4208,R. Damião Góis,,38.69836270,-9.22504780,,,0,,,
6607,6607,Gomes Freire - R. Joaquim Bonifácio,,38.72809970,-9.14277180,,,0,,,
7509,7509,Av. Mar. Gomes Costa (Qta. Teresinhas),,38.76123070,-9.12193780,,,0,,,
7519,7519,R. Cidade Quelimane,,38.76576970,-9.12490180,,,0,,,
8018,8018,Igreja Sto. Condestável (C. Ourique),,38.71497570,-9.16642580,,,0,,,
8008,8008,R. Francisco Metrass,,38.71837680,-9.16670830,,,0,,,
8028,8028,Campo Ourique (Prazeres),,38.71469870,-9.17005580,,,0,,,
7607,7607,Geofísica,,38.77595770,-9.12636280,,,0,,,
9008,9008,Casal Vistoso,,38.74142070,-9.12941280,,,0,,,
1509,1509,R. Filipe Mata,,38.74126970,-9.15939680,,,0,,,
7208,7208,Qta. Lavadeiras,,38.78383670,-9.16418980,,,0,,,
7218,7218,Olival Basto,,38.78965970,-9.16849480,,,0,,,
1607,1607,Sete Rios,,38.74159220,-9.16924280,,,0,,,
1627,1627,Estação Sete Rios,,38.74026970,-9.16719780,,,0,,,
12838,12838,Est. Paço Lumiar (Pólo Tec. Lisboa),,38.76426460,-9.18229240,,,0,,,
12839,12839,Lg. Luz,,38.76199150,-9.18365840,,,0,,,
12834,12834,Qta. Inglesinhos,,38.76331670,-9.18060680,,,0,,,
12835,12835,R. Padre Américo,,38.76155570,-9.17982180,,,0,,,
12836,12836,R. Padre Américo,,38.76174070,-9.17962380,,,0,,,
12837,12837,Av. Nações Unidas (C. Comercial),,38.76432350,-9.17749820,,,0,,,
12830,12830,R. Eugénio Salvador,,38.76771170,-9.18026980,,,0,,,
12831,12831,Az. Serrado,,38.76743470,-9.18556680,,,0,,,
12832,12832,Az. Serrado,,38.76764470,-9.18538680,,,0,,,
12833,12833,R. Virgilio Martinho,,38.76516870,-9.17852580,,,0,,,
8419,8419,C. Comercial Olivais - R. Cidade Bissau,,38.76303370,-9.11406180,,,0,,,
8409,8409,Cabo Ruivo - Av. Mar. Gomes Costa,,38.75876370,-9.11343180,,,0,,,
8439,8439,R. Mocimboa Praia,,38.75870270,-9.11053580,,,0,,,
1208,1208,Mq. Pombal - R. Braamcamp,,38.72402070,-9.15089580,,,0,,,
5707,5707,Campo Grande - Av. Brasil,,38.75579940,-9.15152580,,,0,,,
1218,1218,R. Sta. Marta,,38.72529670,-9.14602080,,,0,,,
8513,8513,R. D. João V,,38.72102570,-9.16136480,,,0,,,
9409,9409,R. Maria Pia / Estr. Loureiro,,38.71099870,-9.17241280,,,0,,,
6609,6609,R. Conde Redondo,,38.72654670,-9.14497380,,,0,,,
9419,9419,Lg. Necessidades,,38.70716060,-9.17156710,,,0,,,
9429,9429,R. Cruz,,38.70725870,-9.17415780,,,0,,,
3607,3607,B. Armador,,38.74625270,-9.11976080,,,0,,,
3617,3617,Av. Ucrânia,,38.74774270,-9.11748580,,,0,,,
2218,2218,Av. Paulo VI,,38.74826070,-9.10877780,,,0,,,
9503,9503,R. Junqueira (Centro Congressos),,38.70003970,-9.18364980,,,0,,,
2208,2208,Estação Braço Prata,,38.74718370,-9.10472580,,,0,,,
9513,9513,Centro Congressos,,38.69967270,-9.18373380,,,0,,,
6707,6707,R. Borges Carneiro / Cç. Estrela,,38.71226870,-9.15661980,,,0,,,
7609,7609,Gasolineiras,,38.78099170,-9.12483480,,,0,,,
7699,7699,Aeroporto,,38.76922410,-9.12808090,,,0,,,
12931,12931,B. 2 Maio,,38.71218000,-9.19910280,,,0,,,
7727,7727,R. Mercado,,38.77096270,-9.11713380,,,0,,,
12930,12930,Restelo,,38.71273250,-9.21078100,,,0,,,
12933,12933,Ajuda (Associação Desportiva),,38.71194880,-9.20385070,,,0,,,
7707,7707,Piscina Olivais,,38.76860970,-9.11489780,,,0,,,
12932,12932,Ajuda (Associação Desportiva),,38.71143340,-9.20406400,,,0,,,
7717,7717,Esc. Olivais,,38.76528870,-9.10960980,,,0,,,
1609,1609,Sete Rios,,38.74145420,-9.16949060,,,0,,,
1619,1619,Sete Rios,,38.74131920,-9.17024380,,,0,,,
1629,1629,Sete Rios,,38.74179910,-9.16882580,,,0,,,
1707,1707,Picoas,,38.73012870,-9.14543280,,,0,,,
19001,19001,Centro Sul,,38.66789220,-9.16413980,,,0,,,
4003,4003,Alcântara Mar,,38.70287570,-9.17323480,,,0,,,
8519,8519,R. D. João V,,38.72106170,-9.16097380,,,0,,,
8509,8509,Av. Cons. Fernando Sousa,,38.72522470,-9.15996680,,,0,,,
2707,2707,R. B (B. Liberdade),,38.73488790,-9.17037740,,,0,,,
3609,3609,Av. Vergílio Ferreira (Fundação Oriente),,38.74353070,-9.11885680,,,0,,,
8607,8607,Viaduto Duarte Pacheco,,38.72331240,-9.16642860,,,0,,,
9509,9509,Tv. Artur Lamas,,38.69973270,-9.19268080,,,0,,,
3727,3727,Centro Saúde Marvila,,38.74202570,-9.10968850,,,0,,,
3707,3707,Av. João Paulo II,,38.74742370,-9.11026580,,,0,,,
3717,3717,Av. Paulo VI (Igreja),,38.74307570,-9.11179280,,,0,,,
6033,6033,R. João Amaral,,38.78696070,-9.14993980,,,0,,,
6023,6023,B. Sete Céus,,38.78605170,-9.14992780,,,0,,,
6013,6013,R. Melo Antunes,,38.77920330,-9.14467540,,,0,,,
9607,9607,R. Jerónimos,,38.69979770,-9.20590680,,,0,,,
6003,6003,Qta. Pailepa,,38.78789800,-9.14549260,,,0,,,
7709,7709,Av. Berlim / Av. Cidade Luanda,,38.76824970,-9.11117880,,,0,,,
7003,7003,Pç. Paiva Couceiro,,38.73041670,-9.12779480,,,0,,,
7013,7013,R. Morais Soares (Cemitério),,38.73062070,-9.12533480,,,0,,,
9208,9208,Campo Mártires Pátria,,38.72224570,-9.13988780,,,0,,,
1709,1709,Pç. José Fontana,,38.73074470,-9.14376180,,,0,,,
4009,4009,Alcântara Mar,,38.70584670,-9.17435780,,,0,,,
1003,1003,Restauradores,,38.71598870,-9.14158680,,,0,,,
1013,1013,Lavra - R. Câmara Pestana,,38.71866200,-9.14012490,,,0,,,
2709,2709,Serafina,,38.73251670,-9.17179480,,,0,,,
4113,4113,Belém (Museu Coches),,38.69738270,-9.19881480,,,0,,,
4103,4103,Belém - Cç. Ajuda,,38.69783170,-9.19948480,,,0,,,
2053,2053,Entrecampos - Av. EUA,,38.74837270,-9.14701080,,,0,,,
8609,8609,Arco Carvalhão,,38.72420770,-9.16526080,,,0,,,
2023,2023,Av. 5 Outubro / Av. Álvaro Pais,,38.74421550,-9.14959910,,,0,,,
2013,2013,Entrecampos,,38.74881570,-9.14783780,,,0,,,
2003,2003,Entrecampos Norte,,38.74980270,-9.14824380,,,0,,,
3709,3709,Esc. Marvila,,38.74031870,-9.10982880,,,0,,,
3719,3719,Av. Paulo VI / R. José Patrocínio,,38.74434070,-9.11076480,,,0,,,
7410,7410,Lg. Frei Heitor Pinto,,38.75522970,-9.13918180,,,0,,,
8717,8717,B. Monsanto,,38.73279470,-9.19371680,,,0,,,
8707,8707,Luneta Quartéis,,38.73147370,-9.19765380,,,0,,,
6029,6029,Pç. D. António Ribeiro,,38.78049370,-9.15151480,,,0,,,
6019,6019,Av. Nuno Krus Abecassis,,38.77962850,-9.15118170,,,0,,,
9609,9609,Mosteiro Jerónimos,,38.69733770,-9.20341580,,,0,,,
6009,6009,Campo Amoreiras,,38.78550720,-9.14280290,,,0,,,
3023,3023,Reboleira (Metro),,38.75038470,-9.22186280,,,0,,,
3003,3003,Damaia - R. D. Francisco Almeida,,38.74983350,-9.21288590,,,0,,,
3013,3013,Damaia - Av. D. João V,,38.74550410,-9.21783150,,,0,,,
50010,50010,R. Prof. João Barreira,,38.76254470,-9.17081180,,,0,,,
50011,50011,Telheiras,,38.76058270,-9.16972180,,,0,,,
50012,50012,Telheiras,,38.76043300,-9.16950960,,,0,,,
50013,50013,R. Prof. Fernando Fonseca,,38.76172070,-9.16518480,,,0,,,
50014,50014,R. Prof. Fernando Fonseca,,38.76157770,-9.16507280,,,0,,,
50015,50015,Esc. Telheiras,,38.76015170,-9.17440080,,,0,,,
50016,50016,Esc. Telheiras,,38.76001340,-9.17408200,,,0,,,
50017,50017,Qta. Barros,,38.75572570,-9.16828780,,,0,,,
50018,50018,R. Fernando Namora,,38.76005570,-9.17770980,,,0,,,
50019,50019,R. Fernando Namora,,38.76013570,-9.17762480,,,0,,,
6133,6133,R. Gen. Taborda,,38.72873200,-9.16321750,,,0,,,
6123,6123,R. Campolide (Escola),,38.73226870,-9.16243080,,,0,,,
6113,6113,Campolide,,38.72676220,-9.16236800,,,0,,,
9707,9707,Av. Restelo,,38.69933620,-9.21415640,,,0,,,
6103,6103,R. Artilharia Um / R. Francisco M. Melo,,38.72756820,-9.15900500,,,0,,,
9717,9717,R. S. Francisco Xavier,,38.69911970,-9.21758280,,,0,,,
7009,7009,Esc. Nuno Gonçalves,,38.72761470,-9.12820380,,,0,,,
7019,7019,R. Barão Sabrosa / R. Baldaques,,38.73383970,-9.12840980,,,0,,,
1410,1410,Av. Marquês Tomar,,38.73493770,-9.14956380,,,0,,,
7103,7103,Conde Barão - Av. D. Carlos I,,38.70890370,-9.15293380,,,0,,,
4502,4502,Sul e Sueste,,38.70830770,-9.13335180,,,0,,,
2410,2410,Parque Nações Sul,,38.75502870,-9.09660280,,,0,,,
5502,5502,Pç. Comércio,,38.70900570,-9.13532180,,,0,,,
5512,5512,Pç. Comércio,,38.70828460,-9.13632240,,,0,,,
4109,4109,Belém,,38.69713820,-9.20071710,,,0,,,
1103,1103,Av. Liberdade,,38.71973770,-9.14500980,,,0,,,
2019,2019,Estação Entrecampos,,38.74502170,-9.14770680,,,0,,,
2009,2009,Av. Forças Armadas / R. Sanches Coelho,,38.74773970,-9.15257180,,,0,,,
6502,6502,Estefânia,,38.73255770,-9.14098980,,,0,,,
7406,7406,Av. Sta. Joana Princesa,,38.75468570,-9.13654880,,,0,,,
2133,2133,Estação Sta. Apolónia,,38.71401110,-9.12228380,,,0,,,
2123,2123,Campo Sta. Clara,,38.71539170,-9.12307780,,,0,,,
2113,2113,Estação Sta. Apolónia,,38.71432320,-9.12156080,,,0,,,
2103,2103,R. Bica Sapato,,38.71637770,-9.12062080,,,0,,,
4305,4305,Estr. Costa,,38.70337070,-9.25142980,,,0,,,
3009,3009,R. Gen. Fernando Tamagnini,,38.74632350,-9.22260400,,,0,,,
3019,3019,R. Bernardino Machado,,38.74321970,-9.21875780,,,0,,,
7502,7502,Av. Brasil (Rot. Relógio),,38.76236570,-9.13049280,,,0,,,
7512,7512,Qta. Narigão,,38.75825570,-9.13018180,,,0,,,
8013,8013,Esc. Manuel Maia,,38.71699370,-9.16962380,,,0,,,
8003,8003,R. 4 Infantaria,,38.71827270,-9.16477880,,,0,,,
8023,8023,R. C. Teles / R. Ten. Ferreira Durão,,38.71922070,-9.16677580,,,0,,,
6129,6129,Campolide (Av. Cons. Fernando Sousa),,38.72739790,-9.16143260,,,0,,,
6119,6119,Campolide,,38.72773070,-9.16204780,,,0,,,
9709,9709,R. Alto Duque,,38.70101970,-9.22145880,,,0,,,
6109,6109,B. Campolide,,38.72896570,-9.16608980,,,0,,,
9003,9003,R. João Silva,,38.74257520,-9.12934880,,,0,,,
1406,1406,B. Azul,,38.73341470,-9.15451580,,,0,,,
1502,1502,B. Azul (Gulbenkian),,38.73653270,-9.15593080,,,0,,,
1512,1512,R. Filipe Mata,,38.74131670,-9.16028580,,,0,,,
2406,2406,Hosp. Descobertas,,38.75741270,-9.09816480,,,0,,,
7305,7305,Av. Alm. Gago Coutinho / Av. EUA,,38.74960270,-9.13074480,,,0,,,
5804,5804,Campo Grande Norte,,38.75786970,-9.15540280,,,0,,,
5814,5814,Hosp. Pulido Valente,,38.76527070,-9.15734480,,,0,,,
5824,5824,R. Francisco Stromp,,38.76343870,-9.15944180,,,0,,,
5508,5508,Pç. Comércio,,38.70837970,-9.13773580,,,0,,,
2512,2512,R. Caribe,,38.76622370,-9.09779980,,,0,,,
13622,13622,R. António Albino Machado,,38.75461070,-9.16813980,,,0,,,
13623,13623,R. Soeiros,,38.75587470,-9.17730280,,,0,,,
8440,8440,R. Manhiça,,38.75829870,-9.10824480,,,0,,,
13620,13620,R. S. Tomás Aquino,,38.75147370,-9.16766680,,,0,,,
13621,13621,R. António Albino Machado,,38.75419730,-9.16912190,,,0,,,
13626,13626,R. Mateus Vicente / R. Anjos Teixeira,,38.75627870,-9.18100980,,,0,,,
13627,13627,R. Natércia Freire,,38.75469070,-9.18233580,,,0,,,
13624,13624,R. Virgílio Correia,,38.75485070,-9.17374080,,,0,,,
8430,8430,Esc. Vitorino Nemésio,,38.75664970,-9.11461980,,,0,,,
13625,13625,R. Virgílio Correia (Loja Cidadão),,38.75126870,-9.17212880,,,0,,,
8420,8420,Av. Pádua,,38.76298670,-9.10685580,,,0,,,
6824,6824,Jardim Amoreiras,,38.72147370,-9.15638080,,,0,,,
13628,13628,R. António Alçada Baptista,,38.75392270,-9.18191280,,,0,,,
6814,6814,R. Rodrigo Fonseca,,38.72120070,-9.15178680,,,0,,,
13629,13629,Estr. Luz,,38.75494670,-9.17595780,,,0,,,
6804,6804,Rato,,38.72009070,-9.15483780,,,0,,,
4219,4219,Algés - Pç. D. Manuel I,,38.69941270,-9.22856780,,,0,,,
4209,4209,R. Damião Góis,,38.69822970,-9.22503580,,,0,,,
2129,2129,Mercado Sta. Clara,,38.71538570,-9.12541780,,,0,,,
6610,6610,R. Conde Redondo,,38.72662270,-9.14508580,,,0,,,
9410,9410,R. Maria Pia / Estr. Loureiro,,38.71108170,-9.17234280,,,0,,,
9420,9420,Lg. Necessidades,,38.70711770,-9.17141980,,,0,,,
9430,9430,R. Feliciano Sousa,,38.70918970,-9.17537080,,,0,,,
7824,7824,Av. Boa Esperança,,38.77440030,-9.09749780,,,0,,,
2199,2199,Campo Sta. Clara,,38.71543870,-9.12321780,,,0,,,
7804,7804,Pç. José Queirós,,38.77424270,-9.10623680,,,0,,,
7814,7814,Estação Oriente (Interface),,38.76818070,-9.09992580,,,0,,,
7518,7518,R. Cidade Beira,,38.76782770,-9.12337180,,,0,,,
8019,8019,Igreja Sto. Condestável (C. Ourique),,38.71484370,-9.16650080,,,0,,,
8009,8009,R. Sampaio Bruno,,38.71833770,-9.16936180,,,0,,,
8029,8029,Campo Ourique (Prazeres),,38.71440070,-9.17001980,,,0,,,
7610,7610,Gasolineiras,,38.78046770,-9.12542880,,,0,,,
8113,8113,R. João Deus,,38.71268370,-9.16021880,,,0,,,
8103,8103,Jardim Estrela,,38.71556570,-9.16000580,,,0,,,
2335,2335,R. Vila Fontes,,38.75834970,-9.10563780,,,0,,,
2315,2315,Av. Inf. D. Henrique / Av. Berlim,,38.76683770,-9.10399780,,,0,,,
9009,9009,Casal Vistoso,,38.74135070,-9.12817180,,,0,,,
9103,9103,R. Penha França,,38.72436970,-9.12961480,,,0,,,
9113,9113,R. Bartolomeu Costa,,38.72056870,-9.12376680,,,0,,,
9123,9123,R. Gen. Themudo Barata,,38.72694370,-9.12420980,,,0,,,
9133,9133,Sapadores,,38.72197070,-9.12874080,,,0,,,
3305,3305,B. Santos,,38.74484770,-9.15657680,,,0,,,
1814,1814,Av. República,,38.73826870,-9.14605280,,,0,,,
1508,1508,Pç. Espanha,,38.73821120,-9.15890780,,,0,,,
7209,7209,Qta. Lavadeiras,,38.78378270,-9.16406180,,,0,,,
7219,7219,Cç. Carriche,,38.78152870,-9.16425450,,,0,,,
1610,1610,Sete Rios,,38.74083030,-9.16812230,,,0,,,
1620,1620,Av. Columb. B. Pinheiro (Est. Sete Rios),,38.73946570,-9.16756380,,,0,,,
5802,5802,Hipódromo,,38.75786970,-9.16287280,,,0,,,
5812,5812,Hosp. Pulido Valente,,38.76519170,-9.15687980,,,0,,,
5832,5832,Qta. Lambert - R. Agostinho Neto,,38.76323670,-9.15345280,,,0,,,
2814,2814,R. Vasco Botelho Amaral,,38.74275630,-9.20188970,,,0,,,
2804,2804,R. Gen. Morais Sarmento,,38.74778270,-9.19781580,,,0,,,
5906,5906,Lumiar,,38.77287670,-9.16131580,,,0,,,
5916,5916,R. Rainha D. Luísa Gusmão,,38.76746370,-9.15960980,,,0,,,
13125,13125,R. Mem Rodrigues,,38.70813270,-9.20902580,,,0,,,
5926,5926,Ameixoeira,,38.78188470,-9.15866180,,,0,,,
13124,13124,Estádio Restelo,,38.70419070,-9.20785080,,,0,,,
13126,13126,R. Mem Rodrigues,,38.70807970,-9.20889780,,,0,,,
13121,13121,R. Pero Alenquer,,38.70315770,-9.21119280,,,0,,,
8416,8416,Cabo Ruivo - Av. Dr. Augusto Castro,,38.75716870,-9.11255680,,,0,,,
13120,13120,Restelo (EPUL),,38.70558170,-9.21248460,,,0,,,
8406,8406,Cabo Ruivo - Av. Mar. Gomes Costa,,38.75904070,-9.11340080,,,0,,,
13123,13123,R. Cons. Martins Carvalho,,38.70658270,-9.20402080,,,0,,,
13122,13122,R. Pero Alenquer,,38.70338290,-9.21146670,,,0,,,
8426,8426,R. Cons. Emídio Navarro,,38.75687370,-9.11850580,,,0,,,
6822,6822,Rato,,38.72029270,-9.15565580,,,0,,,
6812,6812,Rato,,38.72025070,-9.15488480,,,0,,,
6802,6802,Av. Álvares Cabral,,38.71834570,-9.15694280,,,0,,,
3824,3824,Corpo Santo,,38.70723650,-9.14116990,,,0,,,
3804,3804,Cais Sodré,,38.70592170,-9.14396180,,,0,,,
1209,1209,Mq. Pombal - R. Joaquim A. Aguiar,,38.72538350,-9.15204210,,,0,,,
5706,5706,Campo Grande - Av. Brasil,,38.75469270,-9.15190280,,,0,,,
1229,1229,Marquês Pombal,,38.72566570,-9.14903980,,,0,,,
8512,8512,Amoreiras,,38.72382670,-9.16091280,,,0,,,
8502,8502,Amoreiras,,38.72409370,-9.16071880,,,0,,,
6906,6906,Hosp. D. Estefânia,,38.72754270,-9.14079880,,,0,,,
9406,9406,R. Maria Pia,,38.71283970,-9.17362780,,,0,,,
9416,9416,Qta. Jacinto,,38.70818870,-9.17661240,,,0,,,
9426,9426,R. Necessidades,,38.70574570,-9.16975480,,,0,,,
4309,4309,Cruz Quebrada (Clube Ténis Jamor),,38.70774870,-9.25151180,,,0,,,
3610,3610,Av. Vergílio Ferreira (Fundação Oriente),,38.74414070,-9.11844580,,,0,,,
7822,7822,Av. D. João II,,38.77133070,-9.09776180,,,0,,,
7802,7802,R. Sarg. Armando Monteiro Ferreira,,38.77171370,-9.10998280,,,0,,,
7812,7812,Pç. José Queirós,,38.77379670,-9.10475380,,,0,,,
2219,2219,Av. Paulo VI,,38.74790770,-9.10894980,,,0,,,
2209,2209,B. Prodac,,38.74660570,-9.10710980,,,0,,,
6716,6716,R. Palmeira,,38.71484170,-9.15014980,,,0,,,
9502,9502,Hosp. Egas Moniz - Av. India,,38.69776570,-9.18697380,,,0,,,
6706,6706,R. S. Bento,,38.71528570,-9.15437880,,,0,,,
9512,9512,R. Pinto Ferreira,,38.69822970,-9.19135180,,,0,,,
7906,7906,R. Laureano Oliveira,,38.77664730,-9.10284960,,,0,,,
7916,7916,Moscavide (Qta. Laranjeiras),,38.77191570,-9.10148080,,,0,,,
8109,8109,Estrela - R. Domingos Sequeira,,38.71409170,-9.16170980,,,0,,,
7726,7726,R. Mercado,,38.77052970,-9.11693580,,,0,,,
7706,7706,Piscina Olivais,,38.76961950,-9.11247160,,,0,,,
7716,7716,Av. Berlim,,38.76715570,-9.11021280,,,0,,,
9109,9109,Sapadores,,38.72219670,-9.12871880,,,0,,,
9119,9119,R. Sra. Glória,,38.71822270,-9.12766380,,,0,,,
9129,9129,Sapadores,,38.72098070,-9.13019680,,,0,,,
1802,1802,Saldanha,,38.73390070,-9.14506380,,,0,,,
1812,1812,Saldanha,,38.73362670,-9.14508480,,,0,,,
8305,8305,Cç. Grilo,,38.73025070,-9.10788780,,,0,,,
1906,1906,Campo Pequeno - Av. República,,38.74171270,-9.14688980,,,0,,,
7309,7309,R. Eduardo Noronha,,38.75168570,-9.13201780,,,0,,,
2812,2812,Estação Benfica,,38.74488670,-9.19981780,,,0,,,
9305,9305,R. Arco Carvalhão (Ajuda de Mãe),,38.71994370,-9.17254880,,,0,,,
2802,2802,Estação Benfica - Av. Gomes Pereira,,38.74544870,-9.19803380,,,0,,,
2906,2906,R. Prof. Jorge Silva Horta,,38.74596420,-9.20471180,,,0,,,
13824,13824,Lg. Terreirinho,,38.71606920,-9.13307060,,,0,,,
13822,13822,R. Lagares,,38.71546670,-9.13208380,,,0,,,
3802,3802,Cais Sodré,,38.70634080,-9.14539260,,,0,,,
3812,3812,Cais Sodré,,38.70568670,-9.14396780,,,0,,,
8844,8844,Alto Zambujal,,38.73633870,-9.21259480,,,0,,,
8814,8814,Buraca,,38.74378470,-9.20576380,,,0,,,
8804,8804,Qta. Torres,,38.73362470,-9.20765980,,,0,,,
5708,5708,Campo Grande - Av. Brasil,,38.75514270,-9.15034380,,,0,,,
8824,8824,R. Creche,,38.74407770,-9.21087380,,,0,,,
8518,8518,Amoreiras (C. Comercial),,38.72272370,-9.16111280,,,0,,,
8508,8508,Cruz Almas,,38.72534670,-9.16333090,,,0,,,
2716,2716,Estação Campolide,,38.73138330,-9.16837600,,,0,,,
2706,2706,B. Liberdade,,38.73308570,-9.16911580,,,0,,,
4114,4114,Altinho (MAAT),,38.69751470,-9.19600880,,,0,,,
4104,4104,Belém - Cç. Ajuda,,38.69798970,-9.19938280,,,0,,,
3926,3926,Santos,,38.70648270,-9.15447680,,,0,,,
3906,3906,Cais Rocha (Museu Nac. Arte Antiga),,38.70378140,-9.16235200,,,0,,,
8610,8610,Arco Carvalhão,,38.72402570,-9.16537180,,,0,,,
9804,9804,R. D. Fuas Roupinho,,38.72461770,-9.11637980,,,0,,,
9814,9814,Cç. Cruz Pedra,,38.72036070,-9.11710780,,,0,,,
9824,9824,Cç. Cruz Pedra,,38.72046370,-9.11780480,,,0,,,
6718,6718,Cç. Estrela / R. Dr. Teófilo Braga,,38.71276370,-9.15743080,,,0,,,
9508,9508,R. Pinto Ferreira,,38.69783270,-9.19175680,,,0,,,
6708,6708,R. Borges Carneiro / Cç. Estrela,,38.71229270,-9.15633480,,,0,,,
3726,3726,Az. Vale Fundão,,38.74360530,-9.10527020,,,0,,,
3706,3706,Pç. Eduardo Mondlane,,38.74413770,-9.11367980,,,0,,,
3716,3716,Av. Paulo VI (Igreja),,38.74246570,-9.11292880,,,0,,,
6030,6030,Pç. D. António Ribeiro,,38.78018830,-9.15147040,,,0,,,
6020,6020,Av. Nuno Krus Abecassis,,38.77940120,-9.15120130,,,0,,,
2319,2319,Az. Baptista,,38.75306120,-9.10326980,,,0,,,
6010,6010,Qta. Pailepa,,38.78809170,-9.14565180,,,0,,,
9610,9610,Mosteiro Jerónimos,,38.69722870,-9.20505980,,,0,,,
7728,7728,Av. Berlim (Pç. Baden Powell),,38.76811770,-9.10906080,,,0,,,
7708,7708,Piscina Olivais,,38.76870270,-9.11438580,,,0,,,
7718,7718,Esc. Olivais,,38.76490170,-9.10977480,,,0,,,
6124,6124,R. Campolide (Escola),,38.73221470,-9.16273780,,,0,,,
6104,6104,Campolide,,38.72649970,-9.16226800,,,0,,,
3309,3309,Qta. Freiras,,38.74394770,-9.15477080,,,0,,,
7010,7010,Pç. Paiva Couceiro,,38.73136770,-9.12708780,,,0,,,
9209,9209,Desterro,,38.72079320,-9.13815080,,,0,,,
7104,7104,Conde Barão - Av. D. Carlos I,,38.70941510,-9.15325790,,,0,,,
1010,1010,Restauradores,,38.71619980,-9.14175690,,,0,,,
8842,8842,B. Zambujal,,38.73868270,-9.21036280,,,0,,,
8802,8802,B. Boavista,,38.73514520,-9.20459880,,,0,,,
8822,8822,Estr. Alfragide (Buraca),,38.74276920,-9.20594350,,,0,,,
2718,2718,R. Campolide / Av. José Malhoa,,38.73670740,-9.16780070,,,0,,,
2708,2708,R. B (B. Liberdade),,38.73465270,-9.17022180,,,0,,,
6401,6401,Av. João XXI,,38.74220870,-9.14034880,,,0,,,
4112,4112,Belém (Museu Coches),,38.69746170,-9.19858380,,,0,,,
4102,4102,Estação Fluvial Belém,,38.69671870,-9.19912980,,,0,,,
1104,1104,R. Telhal,,38.71962570,-9.14224980,,,0,,,
8916,8916,R. João Nascimento Costa,,38.73416070,-9.12082980,,,0,,,
8906,8906,R. Capitão Roby,,38.73797370,-9.12243080,,,0,,,
2020,2020,Estação Entrecampos,,38.74457470,-9.14762080,,,0,,,
2010,2010,Av. Forças Armadas / R. Sanches Coelho,,38.74771370,-9.15167480,,,0,,,
4206,4206,Algés,,38.69863360,-9.22739590,,,0,,,
9802,9802,Cç. Lajes,,38.72555870,-9.11871780,,,0,,,
9812,9812,Av. Inf. D. Henrique (Tipografia),,38.72281440,-9.11355820,,,0,,,
9822,9822,Av. Inf. D. Henrique (Ponte Xabregas),,38.72553990,-9.11239080,,,0,,,
3708,3708,Pç. Dr. Fernando Amado,,38.74634270,-9.11297280,,,0,,,
3718,3718,Av. Paulo VI (Igreja),,38.74319870,-9.11194580,,,0,,,
7401,7401,Av. Gago Coutinho / Av. D. Rodrigo Cunha,,38.75509570,-9.13020180,,,0,,,
7411,7411,Lg. Frei Heitor Pinto,,38.75429670,-9.13888580,,,0,,,
8716,8716,Tribunal Monsanto,,38.73296270,-9.19192180,,,0,,,
8706,8706,Monsanto,,38.73256770,-9.18975780,,,0,,,
2124,2124,Campo Sta. Clara,,38.71578640,-9.12386410,,,0,,,
2114,2114,Estação Sta. Apolónia,,38.71353560,-9.12280570,,,0,,,
2104,2104,R. Bica Sapato,,38.71689510,-9.12071630,,,0,,,
9906,9906,Sta. Catarina,,38.71101590,-9.14692770,,,0,,,
3020,3020,R. Bernardino Machado,,38.74361470,-9.21966280,,,0,,,
3010,3010,Pç. Marquês Minas,,38.74412570,-9.21990180,,,0,,,
6132,6132,B. Cç. Mestres - Rua 12,,38.72799070,-9.17039280,,,0,,,
6122,6122,R. Campolide,,38.72932270,-9.16243680,,,0,,,
6112,6112,B. Cç. Mestres - Rua 5,,38.72627270,-9.16754480,,,0,,,
9706,9706,R. D. Constantino Bragança,,38.70637170,-9.21605780,,,0,,,
6102,6102,Campolide,,38.72704460,-9.16237650,,,0,,,
9716,9716,R. S. Francisco Xavier,,38.69877870,-9.21783480,,,0,,,
8319,8319,Xabregas,,38.72611270,-9.11348780,,,0,,,
8309,8309,Xabregas - R. Manutenção,,38.72671270,-9.10985250,,,0,,,
1401,1401,Igreja S. Sebastião Pedreira,,38.73181070,-9.15161080,,,0,,,
7102,7102,Conde Barão - Av. 24 Julho,,38.70639890,-9.14909280,,,0,,,
7112,7112,R. Instituto Industrial,,38.70835450,-9.15052050,,,0,,,
4501,4501,Sul e Sueste,,38.70852170,-9.13355480,,,0,,,
7226,7226,R. Jaime Lopes Dias,,38.77911290,-9.16570100,,,0,,,
7206,7206,Qta. Lavadeiras,,38.78433570,-9.16620680,,,0,,,
7216,7216,Qta. Moleirinha,,38.78432670,-9.16131880,,,0,,,
2411,2411,Passeio Adamastor,,38.75793970,-9.09630780,,,0,,,
2401,2401,Av. Mediterrâneo,,38.76241170,-9.09846280,,,0,,,
5501,5501,Pç. Comércio,,38.70838020,-9.13636430,,,0,,,
33103,33103,Hosp. Curry Cabral,,38.74062720,-9.15439380,,,0,,,
33102,33102,Av. Berna (Rego),,38.73981270,-9.15165080,,,0,,,
33101,33101,Av. Berna (Rego),,38.73976070,-9.15121180,,,0,,,
1102,1102,Av. Liberdade,,38.72024970,-9.14571480,,,0,,,
6501,6501,Estefânia,,38.73212470,-9.14105080,,,0,,,
4210,4210,Algés,,38.69846150,-9.22747910,,,0,,,
1206,1206,Mq. Pombal - Av. Fontes P. Melo,,38.72625940,-9.14975700,,,0,,,
4220,4220,Algés,,38.69948970,-9.22778980,,,0,,,
1216,1216,Mq. Pombal - R. Alexandre Herculano,,38.72267570,-9.14938080,,,0,,,
7407,7407,Av. Sta. Joana Princesa,,38.75459470,-9.13637880,,,0,,,
8718,8718,B. Monsanto,,38.73271270,-9.19360280,,,0,,,
8708,8708,Luneta Quartéis,,38.73145770,-9.19745780,,,0,,,
2132,2132,Estação Sta. Apolónia,,38.71420250,-9.12210060,,,0,,,
2122,2122,R. Paraíso,,38.71386470,-9.12470580,,,0,,,
4304,4304,Cruz Quebrada,,38.70186570,-9.25134280,,,0,,,
7521,7521,R. Cidade Nampula,,38.76430970,-9.12045480,,,0,,,
7501,7501,Av. Brasil (Rot. Relógio),,38.76241070,-9.13008280,,,0,,,
8010,8010,Terramotos,,38.72155970,-9.16719580,,,0,,,
8030,8030,Campo Ourique (Prazeres),,38.71400570,-9.16926370,,,0,,,
2216,2216,R. Fernando Palha,,38.74721470,-9.09930480,,,0,,,
8020,8020,Campo Ourique (Igreja),,38.71537470,-9.16790880,,,0,,,
2206,2206,Vale Formoso Cima,,38.74944970,-9.10481080,,,0,,,
6128,6128,R. Artilharia Um,,38.72669370,-9.15857080,,,0,,,
6118,6118,Palácio Justiça,,38.73114370,-9.15608080,,,0,,,
6108,6108,Cç. Mestres,,38.72692570,-9.16497780,,,0,,,
3102,3102,Estação Damaia,,38.74828530,-9.21654840,,,0,,,
8114,8114,Estrela (Basílica),,38.71386870,-9.16059680,,,0,,,
8104,8104,Jardim Estrela,,38.71577570,-9.15957580,,,0,,,
1407,1407,Av. Visconde Valmor,,38.73752270,-9.14951280,,,0,,,
9104,9104,R. Penha França,,38.72388070,-9.12937580,,,0,,,
9114,9114,R. Afonso Domingues,,38.72064970,-9.12455580,,,0,,,
9124,9124,R. Leite Vasconcelos,,38.71762640,-9.12506770,,,0,,,
9134,9134,R. Castelo Branco Saraiva,,38.72607370,-9.12551980,,,0,,,
4507,4507,Sul e Sueste,,38.70738550,-9.13305900,,,0,,,
1501,1501,B. Azul (Gulbenkian),,38.73671170,-9.15579880,,,0,,,
7220,7220,Sr. Roubado (Metro),,38.78583470,-9.17211180,,,0,,,
1511,1511,Av. Calouste Gulbenkian (Viaduto),,38.73616870,-9.16020780,,,0,,,
7210,7210,Qta. Alcoutins,,38.77949810,-9.17224220,,,0,,,
2407,2407,Hosp. Descobertas,,38.75716570,-9.09811470,,,0,,,
7304,7304,Qta. Sto. António,,38.75190270,-9.13081280,,,0,,,
5805,5805,Campo Grande Norte,,38.75808670,-9.15344470,,,0,,,
5815,5815,Inst. Ricardo Jorge,,38.76705970,-9.16407880,,,0,,,
5825,5825,Campo Grande (Metro),,38.76049970,-9.15598180,,,0,,,
5835,5835,R. Manuel Marques,,38.76631470,-9.15417380,,,0,,,
2511,2511,R. Caribe,,38.76597770,-9.09817280,,,0,,,
8441,8441,Sport Lisboa Olivais,,38.76152170,-9.10828580,,,0,,,
5601,5601,Igreja Sta. Maria Madalena,,38.71005070,-9.13526480,,,0,,,
8401,8401,Av. Cidade L. Marques S,,38.76267670,-9.11938080,,,0,,,
8421,8421,C. Comercial Olivais,,38.76160720,-9.11366390,,,0,,,
6825,6825,Rato,,38.72035370,-9.15365980,,,0,,,
6815,6815,R. Custódio Vieira,,38.72032970,-9.15904580,,,0,,,
6805,6805,Rato,,38.71983670,-9.15506380,,,0,,,
1220,1220,Marquês Pombal,,38.72616070,-9.15024350,,,0,,,
2128,2128,Estação Sta. Apolónia (Mercadorias),,38.71679970,-9.11915180,,,0,,,
2118,2118,Estação Sta. Apolónia,,38.71379880,-9.12253640,,,0,,,
2108,2108,R. Washington,,38.71823570,-9.12123080,,,0,,,
6611,6611,Gomes Freire - R. Joaquim Bonifácio,,38.72734470,-9.14203880,,,0,,,
9401,9401,Alcântara,,38.70685570,-9.17360680,,,0,,,
6601,6601,Av. Duque Loulé,,38.72792870,-9.14515080,,,0,,,
9411,9411,Qta. Cabrinha - Av. Ceuta,,38.71292900,-9.17535240,,,0,,,
9421,9421,R. Possidónio Silva,,38.71042770,-9.17132280,,,0,,,
9431,9431,Alcântara (R. Costa),,38.70689970,-9.17266880,,,0,,,
7825,7825,Estação Oriente,,38.76717840,-9.09909230,,,0,,,
7805,7805,Estação Oriente,,38.76847770,-9.09882980,,,0,,,
7507,7507,Qta. Narigão,,38.75791670,-9.12992480,,,0,,,
7517,7517,Pç. Aeroporto,,38.76322270,-9.12859780,,,0,,,
2220,2220,Vale Formoso Cima,,38.75043970,-9.10439080,,,0,,,
2210,2210,B. Prodac,,38.74674370,-9.10686980,,,0,,,
7601,7601,Aeroporto,,38.76783370,-9.12870780,,,0,,,
7611,7611,Externato Champagnat,,38.77785570,-9.12683880,,,0,,,
8112,8112,Estrela (Basílica),,38.71372170,-9.16022880,,,0,,,
8102,8102,Estrela,,38.71328070,-9.16216980,,,0,,,
2324,2324,Av. Inf. D. Henrique / Av. Berlim,,38.76657570,-9.10436980,,,0,,,
2314,2314,Rot. Cabo Ruivo,,38.75598610,-9.10426970,,,0,,,
2304,2304,Rot. Cabo Ruivo,,38.75634730,-9.10454250,,,0,,,
8206,8206,Chafariz Dentro (Museu Fado),,38.71109870,-9.12797980,,,0,,,
9102,9102,Pç. António Sardinha,,38.72597470,-9.12993780,,,0,,,
9112,9112,R. Sapadores,,38.72108270,-9.12703680,,,0,,,
9122,9122,R. Sra. Glória,,38.71804570,-9.12740480,,,0,,,
9132,9132,Sapadores,,38.72180170,-9.12875480,,,0,,,
3304,3304,R. Beneficência,,38.74397170,-9.15808680,,,0,,,
3314,3314,Qta. Freiras,,38.74381740,-9.15451410,,,0,,,
1805,1805,Av. República,,38.73834520,-9.14581550,,,0,,,
1507,1507,Av. Madame Curie,,38.73833770,-9.16195680,,,0,,,
1517,1517,Pç. Espanha (Pq. Urbano),,38.73718620,-9.15783080,,,0,,,
9206,9206,Hosp. Sto. António Capuchos,,38.72257270,-9.14154380,,,0,,,
1601,1601,R. Dr. António Granjo,,38.73883870,-9.16460680,,,0,,,
1621,1621,Estação Sete Rios,,38.74056770,-9.16740380,,,0,,,
1631,1631,R. Basílio Teles,,38.73817320,-9.16383080,,,0,,,
5803,5803,Campo Grande Norte,,38.75911470,-9.15567680,,,0,,,
5813,5813,Av. Rainha D. Amélia,,38.76677460,-9.16065580,,,0,,,
5823,5823,Inst. Ricardo Jorge,,38.76256270,-9.16360980,,,0,,,
5833,5833,Qta. Lambert - R. Agostinho Neto,,38.76295170,-9.15349480,,,0,,,
2815,2815,Trav. Sargento Abílio,,38.74241370,-9.20076280,,,0,,,
2805,2805,Estação Benfica,,38.74471070,-9.19884580,,,0,,,
5905,5905,Lumiar (Estr. Torre),,38.77379470,-9.16139080,,,0,,,
5915,5915,Lumiar - Av. Padre Cruz,,38.77450070,-9.16378280,,,0,,,
5925,5925,R. Prof. M. Valadares,,38.77560710,-9.16072840,,,0,,,
5935,5935,INETI,,38.76904670,-9.17924580,,,0,,,
5945,5945,Hosp. Forças Armadas,,38.76891770,-9.17424580,,,0,,,
8407,8407,Av. Mar. Gomes Costa (Poço Cortes),,38.75976470,-9.11676680,,,0,,,
8437,8437,Olivais (Centro Cívico),,38.76325270,-9.11735480,,,0,,,
8427,8427,R. Cons. Emídio Navarro (ISEL),,38.75710370,-9.11660280,,,0,,,
6823,6823,Jardim Amoreiras,,38.72151870,-9.15653580,,,0,,,
6813,6813,Rato - R. D. João V,,38.72077070,-9.15631480,,,0,,,
3825,3825,R. Alecrim,,38.70759470,-9.14334080,,,0,,,
6803,6803,Av. Álvares Cabral,,38.71769370,-9.15716380,,,0,,,
3805,3805,Cais Sodré,,38.70532470,-9.14390980,,,0,,,
5701,5701,Cidade Universitária,,38.75385470,-9.15651380,,,0,,,
8511,8511,Amoreiras,,38.72386970,-9.16057480,,,0,,,
8501,8501,Amoreiras,,38.72438590,-9.16103790,,,0,,,
6905,6905,Hosp. D. Estefânia,,38.72761670,-9.13977480,,,0,,,
9407,9407,R. Capitão Afonso Pala,,38.70894350,-9.17147510,,,0,,,
9417,9417,Alcântara,,38.70627970,-9.17337980,,,0,,,
9427,9427,R. Alvito,,38.70750770,-9.17518180,,,0,,,
3601,3601,Lg. Chelas,,38.73983170,-9.11783280,,,0,,,
3611,3611,B. Armador,,38.74708790,-9.11875400,,,0,,,
7823,7823,Av. Boa Esperança,,38.77450270,-9.09708880,,,0,,,
7803,7803,Olivais Velho - Av. Inf. D. Henrique,,38.77004370,-9.10431780,,,0,,,
7813,7813,Estação Oriente (Interface),,38.76757570,-9.09998080,,,0,,,
6721,6721,Cç. Estrela,,38.71222370,-9.15513480,,,0,,,
9501,9501,Hosp. Egas Moniz - Av. India,,38.69742770,-9.18814480,,,0,,,
9511,9511,R. Junqueira (Centro Congressos),,38.70000670,-9.18342580,,,0,,,
6701,6701,Assembleia República,,38.71100870,-9.15349980,,,0,,,
7905,7905,R. Laureano Oliveira,,38.77697570,-9.10174140,,,0,,,
7915,7915,R. Pe. Joaquim Alves Correia,,38.77271850,-9.10279810,,,0,,,
8108,8108,R. Domingos Sequeira,,38.71510770,-9.16302880,,,0,,,
7721,7721,Pç. Casas Novas,,38.77291970,-9.11312980,,,0,,,
7731,7731,Av. Cidade L. Marques N,,38.76816370,-9.11978380,,,0,,,
7701,7701,Av. Cidade L. Marques N,,38.76740970,-9.11931180,,,0,,,
7711,7711,Av. Berlim / Tv. Courelas,,38.76769270,-9.10583480,,,0,,,
9108,9108,Av. General Roçadas,,38.72488670,-9.12861480,,,0,,,
9118,9118,Sapadores,,38.72128870,-9.12918980,,,0,,,
9128,9128,Sapadores,,38.72134370,-9.12989480,,,0,,,
1803,1803,Saldanha,,38.73392820,-9.14534480,,,0,,,
8314,8314,Av. Inf. D. Henrique (Beato ID),,38.73130350,-9.10552200,,,0,,,
8304,8304,Xabregas,,38.72825870,-9.10964080,,,0,,,
9210,9210,Campo Mártires Pátria,,38.72239770,-9.13960880,,,0,,,
1905,1905,Campo Pequeno,,38.74356170,-9.14485580,,,0,,,
1915,1915,Campo Pequeno - Av. Berna,,38.74113070,-9.14725780,,,0,,,
2813,2813,R. José Augusto Seabra,,38.74417870,-9.20023680,,,0,,,
9304,9304,R. Correia Teles,,38.71875770,-9.17128180,,,0,,,
2803,2803,R. Gen. Morais Sarmento,,38.74731770,-9.19774480,,,0,,,
1701,1701,Av. Fontes P. Melo,,38.72878270,-9.14775780,,,0,,,
1711,1711,Pç. José Fontana,,38.73041670,-9.14364280,,,0,,,
5903,5903,Qta. Conchas,,38.77034370,-9.15970480,,,0,,,
5913,5913,Castanheira Moura,,38.77418470,-9.15686180,,,0,,,
5923,5923,Cç. Carriche / Estr. Militar,,38.77810470,-9.16423580,,,0,,,
5933,5933,Az. S. Gonçalo,,38.78186870,-9.15696180,,,0,,,
5943,5943,R. Prof. Orlando Ribeiro,,38.77032470,-9.17076680,,,0,,,
5953,5953,R. F. Lopes Graça / R. César Oliveira,,38.76920050,-9.17149080,,,0,,,
2905,2905,B. Sta. Cruz,,38.74770870,-9.20702480,,,0,,,
4001,4001,Alcântara - Av. 24 Julho,,38.70414820,-9.17381780,,,0,,,
3823,3823,Corpo Santo,,38.70695280,-9.14158490,,,0,,,
3803,3803,Cais Sodré,,38.70624670,-9.14501880,,,0,,,
8845,8845,Alto Zambujal,,38.73646670,-9.21275780,,,0,,,
8815,8815,Estr. Alfragide,,38.74075870,-9.20889280,,,0,,,
8835,8835,Estr. Buraca,,38.74163770,-9.20281580,,,0,,,
8517,8517,R. Amoreiras,,38.72321870,-9.16011580,,,0,,,
8507,8507,Cruz Almas,,38.72534770,-9.16362580,,,0,,,
2711,2711,Tarujo,,38.73496000,-9.16508340,,,0,,,
2701,2701,Estação Campolide,,38.73136370,-9.16853310,,,0,,,
6903,6903,Hosp. D. Estefânia,,38.72947470,-9.14048780,,,0,,,
3905,3905,Cais Rocha (Museu Nac. Arte Antiga),,38.70350970,-9.16272480,,,0,,,
3915,3915,Santos-o-Velho,,38.70694820,-9.15817080,,,0,,,
8611,8611,R. Arco Carvalhão,,38.72282470,-9.16680880,,,0,,,
8601,8601,Av. Ceuta (Viveiros),,38.72297670,-9.17484580,,,0,,,
9805,9805,R. Madre Deus,,38.72285770,-9.11509180,,,0,,,
9825,9825,Cç. Cruz Pedra,,38.72038770,-9.11810180,,,0,,,
9507,9507,R. Pinto Ferreira,,38.69801970,-9.19053380,,,0,,,
3721,3721,R. A. José Pessoa,,38.74160470,-9.10787680,,,0,,,
3701,3701,R. Dinah Silveira Queiroz,,38.74073970,-9.11191080,,,0,,,
3711,3711,B. Salgadas,,38.73840870,-9.11315080,,,0,,,
7903,7903,Moscavide Centro - R. Franc. M. Beato,,38.77963770,-9.10249880,,,0,,,
6031,6031,Vale Castanheira,,38.78059070,-9.14819580,,,0,,,
6021,6021,Av. Dr. José Salvado Sampaio,,38.78029470,-9.15321780,,,0,,,
6011,6011,Igreja Charneca,,38.78341270,-9.14262380,,,0,,,
9601,9601,Cç. Galvão,,38.70068670,-9.20299580,,,0,,,
6001,6001,R. João Amaral,,38.78730070,-9.14916180,,,0,,,
9611,9611,Mosteiro Jerónimos,,38.69795270,-9.20451380,,,0,,,
7001,7001,R. Barão Sabrosa,,38.73520570,-9.12896380,,,0,,,
7011,7011,Pç. Paiva Couceiro / R. Morais Soares,,38.73211770,-9.12829080,,,0,,,
1903,1903,Campo Pequeno - Av. República,,38.74278270,-9.14669080,,,0,,,
2903,2903,Benfica (Mercado),,38.75026070,-9.20742980,,,0,,,
1001,1001,Restauradores,,38.71569530,-9.14132250,,,0,,,
1011,1011,Restauradores,,38.71584110,-9.14145060,,,0,,,
8843,8843,B. Zambujal,,38.73873950,-9.21058110,,,0,,,
8813,8813,R. Venezuela,,38.74511270,-9.20273780,,,0,,,
8803,8803,Qta. Torres,,38.73322170,-9.20779780,,,0,,,
8823,8823,R. Creche,,38.74398970,-9.21106080,,,0,,,
4111,4111,Belém,,38.69712370,-9.20083280,,,0,,,
4101,4101,Estação Fluvial Belém,,38.69622470,-9.19833480,,,0,,,
3913,3913,Santos,,38.70665070,-9.15574780,,,0,,,
8915,8915,R. Frederico Perry Vidal,,38.73599770,-9.12227280,,,0,,,
8905,8905,R. Aquiles Machado,,38.73830070,-9.12470980,,,0,,,
2051,2051,Estação Entrecampos,,38.74537470,-9.14779880,,,0,,,
2021,2021,Estação Entrecampos,,38.74550870,-9.14739480,,,0,,,
2011,2011,Entrecampos,,38.74758390,-9.14785680,,,0,,,
2001,2001,Entrecampos,,38.74726350,-9.14779650,,,0,,,
4207,4207,Algés,,38.69928990,-9.22707790,,,0,,,
9803,9803,R. D. Fuas Roupinho,,38.72440870,-9.11738880,,,0,,,
9813,9813,Cç. Cruz Pedra,,38.72051570,-9.11686680,,,0,,,
9823,9823,Esc. Patricio Prazeres,,38.72129370,-9.11983180,,,0,,,
8711,8711,Estr. Oliveiras Baixo (Bombeiros),,38.72618270,-9.19628080,,,0,,,
8701,8701,Cruz Oliveiras,,38.72660070,-9.19374780,,,0,,,
9905,9905,Bica - R. S. Paulo,,38.70855140,-9.14680080,,,0,,,
3021,3021,Alto Damaia,,38.74349670,-9.21751380,,,0,,,
3001,3001,Av. Padre Himalaia,,38.74494870,-9.22171880,,,0,,,
3011,3011,Pç. Marquês Minas,,38.74380070,-9.22020380,,,0,,,
6131,6131,Alto Carvalhão,,38.72592520,-9.16482880,,,0,,,
6121,6121,R. Campolide,,38.73060810,-9.16230310,,,0,,,
6111,6111,B. Cç. Mestres - Rua 10,,38.72944370,-9.16706980,,,0,,,
6101,6101,Campolide,,38.72759970,-9.16177780,,,0,,,
9711,9711,Av. D. Vasco Gama,,38.70140470,-9.21677880,,,0,,,
7101,7101,Conde Barão - Av. 24 Julho,,38.70631240,-9.14852790,,,0,,,
7111,7111,R. Poço Negros,,38.70980570,-9.15172280,,,0,,,
7227,7227,R. Jaime Lopes Dias,,38.77887360,-9.16542210,,,0,,,
7207,7207,Cç. Carriche / Estr. Desvio,,38.78295940,-9.16472130,,,0,,,
7217,7217,Estr. Desvio / R. Prof. J. Pinto Correia,,38.78198370,-9.16281780,,,0,,,
5510,5510,R. Ouro,,38.71046770,-9.13855680,,,0,,,
8913,8913,Olaias (Piscina),,38.73989070,-9.12368980,,,0,,,
8903,8903,R. Prof. Mira Fernandes,,38.73807170,-9.12340080,,,0,,,
8923,8923,R. Eng. Maciel Chaves,,38.73632970,-9.12377380,,,0,,,
4211,4211,Algés,,38.69896470,-9.22717280,,,0,,,
4201,4201,Algés,,38.69860580,-9.22725170,,,0,,,
4221,4221,R. Fernão Mendes Pinto,,38.69819770,-9.22552280,,,0,,,
1207,1207,Mq. Pombal - R. Braamcamp,,38.72413270,-9.15064080,,,0,,,
1217,1217,R. Sta. Marta,,38.72515770,-9.14619180,,,0,,,
10521,10521,Lg. Academia Nacional Belas Artes,,38.70803970,-9.13989480,,,0,,,
10522,10522,Lg. Carmo - Sta. Justa,,38.71192520,-9.14094610,,,0,,,
2131,2131,Cç. Sta. Apolónia,,38.71777870,-9.11901280,,,0,,,
2111,2111,Estação Sta. Apolónia,,38.71399420,-9.12191920,,,0,,,
2101,2101,Estação Sta. Apolónia,,38.71427750,-9.12283010,,,0,,,
9903,9903,Cç. Combro,,38.71097470,-9.14948080,,,0,,,
4307,4307,Cruz Quebrada,,38.70197140,-9.25147600,,,0,,,
7520,7520,R. Cidade João Belo,,38.76348470,-9.12280380,,,0,,,
8011,8011,Terramotos,,38.72152740,-9.16713130,,,0,,,
8001,8001,R. Saraiva Carvalho,,38.71532370,-9.16459680,,,0,,,
8021,8021,R. Almeida Sousa,,38.71757270,-9.16636580,,,0,,,
2217,2217,Av. Paulo VI,,38.74805370,-9.10807180,,,0,,,
2207,2207,Estação Braço Prata,,38.74709670,-9.10496580,,,0,,,
3101,3101,Damaia - R. D. Francisco Almeida,,38.75051070,-9.21304480,,,0,,,
9001,9001,Alto Pina,,38.73756170,-9.12772180,,,0,,,
10723,10723,B. Calhau,,38.73927670,-9.17761780,,,0,,,
10722,10722,Palácio Marquês Fronteira,,38.74053400,-9.17999700,,,0,,,
10721,10721,Palácio Marquês Fronteira,,38.74038250,-9.18018920,,,0,,,
10720,10720,Mercado S. Domingos Benfica,,38.74399170,-9.18029020,,,0,,,
10726,10726,Pq. Recreativo Alto Serafina,,38.73586070,-9.17964780,,,0,,,
10724,10724,Hosp. Lusíadas,,38.74962130,-9.17882930,,,0,,,
7221,7221,Alto Chapeleiro,,38.78767470,-9.16358180,,,0,,,
1510,1510,Av. Madame Curie,,38.73815870,-9.16183880,,,0,,,
7201,7201,Qta. Alcoutins,,38.78035410,-9.17232420,,,0,,,
7211,7211,Sr. Roubado,,38.78695170,-9.17041180,,,0,,,
7307,7307,Qta. Sto. António,,38.75260270,-9.13045480,,,0,,,
1201,1201,Mq. Pombal - Av. Duque Loulé,,38.72605220,-9.14762980,,,0,,,
1211,1211,Mq. Pombal - R. Alexandre Herculano,,38.72292470,-9.14925980,,,0,,,
1221,1221,Marquês Pombal,,38.72542540,-9.15151450,,,0,,,
6612,6612,Pç. José Fontana,,38.72865900,-9.14459800,,,0,,,
6602,6602,Av. Duque Loulé,,38.72770360,-9.14582690,,,0,,,
4301,4301,Cruz Quebrada (Fac. Motricidade Humana),,38.70517070,-9.25252180,,,0,,,
14730,14730,Av. Avelino Teixeira Mota (CERCI),,38.75212570,-9.12085080,,,0,,,
2211,2211,Av. Paulo VI,,38.74828170,-9.10792780,,,0,,,
2201,2201,Fábrica Gás,,38.75031170,-9.09632080,,,0,,,
10321,10321,Palácio Nacional Ajuda,,38.70746570,-9.19897680,,,0,,,
10320,10320,R. Cruzeiro,,38.70921170,-9.19462080,,,0,,,
7602,7602,Aeroporto,,38.76896370,-9.12797180,,,0,,,
7612,7612,Externato Champagnat,,38.77780270,-9.12706680,,,0,,,
8111,8111,Estrela (Basílica),,38.71364170,-9.16005480,,,0,,,
8101,8101,Estrela,,38.71316570,-9.16201780,,,0,,,
2307,2307,Gás Portugal,,38.75349970,-9.09613680,,,0,,,
9101,9101,Pç. António Sardinha,,38.72589270,-9.13005580,,,0,,,
9111,9111,R. Sapadores,,38.72122870,-9.12717980,,,0,,,
9121,9121,R. Leite Vasconcelos,,38.71771570,-9.12500980,,,0,,,
9131,9131,R. Graça,,38.71922270,-9.12987380,,,0,,,
3307,3307,R. Cardeal Mercier,,38.74154570,-9.15971580,,,0,,,
9207,9207,Campo Santana,,38.72291370,-9.14032880,,,0,,,
1602,1602,R. Dr. António Granjo,,38.73864170,-9.16458580,,,0,,,
1612,1612,Sete Rios,,38.74233870,-9.16787160,,,0,,,
7301,7301,Av. Estados Unidos América,,38.74898570,-9.13288480,,,0,,,
10828,10828,R. Augusto Pina,,38.74964770,-9.18619280,,,0,,,
10829,10829,Pupilos Exército,,38.74669770,-9.18458880,,,0,,,
5904,5904,Qta. Conchas,,38.77024370,-9.15989380,,,0,,,
5914,5914,Az. Poço Baixo,,38.77263070,-9.17041980,,,0,,,
10824,10824,R. Prof. Reinaldo Santos,,38.74781570,-9.18848980,,,0,,,
5924,5924,R. Prof. M. Valadares,,38.77558700,-9.16055460,,,0,,,
10825,10825,R. Augusto Pina,,38.74950470,-9.18561480,,,0,,,
5934,5934,Az. Torre Fato,,38.77010870,-9.17759380,,,0,,,
10826,10826,R. Prof. Reinaldo Santos,,38.74735720,-9.18897380,,,0,,,
5944,5944,R. Prof. Orlando Ribeiro,,38.77055470,-9.17052880,,,0,,,
10827,10827,Colégio Militar (Metro),,38.75173370,-9.18759380,,,0,,,
5954,5954,Paço Lumiar,,38.76940770,-9.17361380,,,0,,,
10820,10820,Colégio Militar (Metro),,38.75253470,-9.18944180,,,0,,,
10821,10821,R. Prof. Reinaldo Santos,,38.74703370,-9.18870980,,,0,,,
10822,10822,Calhariz - R. Ten. Coronel Ribeiro Reis,,38.74627570,-9.18981780,,,0,,,
10823,10823,Colégio Militar (Metro),,38.75273170,-9.18934680,,,0,,,
8510,8510,Amoreiras,,38.72400370,-9.15978180,,,0,,,
8520,8520,Amoreiras (C. Comercial),,38.72242660,-9.16114870,,,0,,,
6904,6904,Hosp. D. Estefânia,,38.72953270,-9.14035480,,,0,,,
3602,3602,Lg. Chelas,,38.74002170,-9.11749780,,,0,,,
3612,3612,Bela Vista,,38.74897770,-9.11617980,,,0,,,
1301,1301,Av. António Augusto Aguiar,,38.72913270,-9.14931580,,,0,,,
6720,6720,Cç. Estrela / R. Borges Carneiro,,38.71238270,-9.15534620,,,0,,,
9510,9510,Tv. Artur Lamas,,38.70012470,-9.19182380,,,0,,,
7904,7904,Moscavide Centro - R. Franc. M. Beato,,38.77963450,-9.10443000,,,0,,,
2311,2311,Av. Inf. D. Henrique (Centieira),,38.75950270,-9.10331380,,,0,,,
2301,2301,Av. Mar. Gomes Costa (Universidade),,38.75731870,-9.10866080,,,0,,,
7720,7720,Pç. Casas Novas,,38.77255970,-9.11368480,,,0,,,
7710,7710,Av. Berlim / Av. Cidade Luanda,,38.76839270,-9.11160780,,,0,,,
8201,8201,Alfândega (Terminal Cruzeiros),,38.71060080,-9.12730580,,,0,,,
10927,10927,R. Pedralvas,,38.75393270,-9.20617480,,,0,,,
10926,10926,R. Pedralvas,,38.75397550,-9.20609130,,,0,,,
10921,10921,Benfica - Av. Grão Vasco,,38.75013970,-9.20322780,,,0,,,
10920,10920,Benfica - Av. Grão Vasco,,38.74993770,-9.20304280,,,0,,,
10922,10922,Benfica - Al. Pe. Álv. Proença,,38.74893730,-9.20293950,,,0,,,
3301,3301,R. Beneficência (Rego),,38.74168670,-9.15616480,,,0,,,
3311,3311,Av. Álvaro Pais,,38.74533670,-9.15241180,,,0,,,
8317,8317,Cç. Grilo,,38.73000670,-9.10869780,,,0,,,
8307,8307,Al. Beato,,38.73310070,-9.10553380,,,0,,,
9201,9201,Paço Rainha,,38.72362670,-9.13774080,,,0,,,
9211,9211,Campo Santana,,38.72365970,-9.13984180,,,0,,,
1904,1904,Campo Pequeno - Av. Defensores Chaves,,38.74179570,-9.14423780,,,0,,,
1914,1914,Campo Pequeno - Av. Berna,,38.74128620,-9.14769100,,,0,,,
9307,9307,R. Guilherme Anjos,,38.71854370,-9.17163380,,,0,,,
1710,1710,Pç. José Fontana,,38.72953670,-9.14356180,,,0,,,
2904,2904,Benfica (Mercado),,38.74985690,-9.20662380,,,0,,,
2720,2720,R. C (B. Liberdade),,38.73535270,-9.17172080,,,0,,,
2710,2710,Tarujo,,38.73479680,-9.16515870,,,0,,,
8612,8612,R. Garcia,,38.72382270,-9.16654180,,,0,,,
8602,8602,Av. Ceuta (Viveiros),,38.72347170,-9.17489380,,,0,,,
3720,3720,Av. Paulo VI / R. José Patrocínio,,38.74437170,-9.11092280,,,0,,,
3710,3710,Av. João Paulo II,,38.74737670,-9.11044780,,,0,,,
9602,9602,Cç. Galvão,,38.70030170,-9.20304480,,,0,,,
94904,94904,Linda-a-Velha,,38.71603170,-9.23566280,,,0,,,
8311,8311,Av. Inf. D. Henrique (Doca Xabregas),,38.72898670,-9.10701580,,,0,,,
8301,8301,Ponte Xabregas,,38.72641660,-9.11165910,,,0,,,
94901,94901,Av. José Gomes Ferreira,,38.71507520,-9.23167880,,,0,,,
8321,8321,Mercado Xabregas,,38.72778670,-9.11467480,,,0,,,
94903,94903,Linda-a-Velha,,38.71583570,-9.23564980,,,0,,,
94902,94902,Av. José Gomes Ferreira,,38.71490320,-9.23165880,,,0,,,
9301,9301,Meia Laranja,,38.71581870,-9.17277580,,,0,,,
8914,8914,Pç. Sócrates Costa,,38.73504770,-9.12181980,,,0,,,
8904,8904,Cç. Picheleira,,38.73741270,-9.12421080,,,0,,,
9904,9904,Cç. Combro,,38.71103170,-9.14983480,,,0,,,
9710,9710,R. Alto Duque,,38.70088470,-9.22129880,,,0,,,
14602,14602,Portagem (Cristo-Rei),,38.67428370,-9.17331780,,,0,,,
14601,14601,Portagem (Cristo-Rei),,38.67381670,-9.17399880,,,0,,,
7306,7306,R. Guilhermina Suggia,,38.74798370,-9.13246780,,,0,,,
14005,14005,Pq. Campismo,,38.72773070,-9.20903080,,,0,,,
14006,14006,Pq. Campismo,,38.72792770,-9.20929380,,,0,,,
14007,14007,Pq. Campismo (Receção),,38.72455670,-9.20801080,,,0,,,
14008,14008,Pq. Campismo,,38.72804570,-9.20935380,,,0,,,
14703,14703,R. Luis Cristino Silva,,38.75811970,-9.12292280,,,0,,,
14702,14702,R. Adães Bermudes,,38.75620770,-9.12070980,,,0,,,
14701,14701,R. Adães Bermudes,,38.75676340,-9.12164920,,,0,,,
14707,14707,Esc. Damião Góis,,38.75739770,-9.12653980,,,0,,,
14706,14706,B. Loios,,38.75912470,-9.12479680,,,0,,,
14705,14705,B. Loios,,38.75925870,-9.12470880,,,0,,,
14704,14704,R. Luis Cristino Silva,,38.75790570,-9.12317880,,,0,,,
14708,14708,Esc. Damião Góis,,38.75762470,-9.12636980,,,0,,,
2336,2336,R. Almada Negreiros,,38.76056170,-9.10597480,,,0,,,
2316,2316,Gás Portugal,,38.75389970,-9.09599480,,,0,,,
14105,14105,R. Rio Tejo,,38.77097870,-9.18896780,,,0,,,
14104,14104,Serra Luz,,38.77197870,-9.19019880,,,0,,,
14107,14107,B. Padre Cruz,,38.76954370,-9.18970880,,,0,,,
3306,3306,B. Santos,,38.74534370,-9.15702850,,,0,,,
14106,14106,R. Rio Tejo,,38.77107770,-9.18923480,,,0,,,
14101,14101,Estr. Militar (Escorpiões),,38.77099970,-9.19357680,,,0,,,
14103,14103,Serra Luz,,38.77222770,-9.19073280,,,0,,,
14102,14102,Estr. Militar (Escorpiões),,38.77095870,-9.19339780,,,0,,,
14109,14109,Qta. Olival (C. Triagem),,38.77704270,-9.17449280,,,0,,,
14108,14108,B. Padre Cruz,,38.76954560,-9.18931450,,,0,,,
521,521,Pç. Chile,,38.73453270,-9.13501880,,,0,,,
522,522,Pç. Chile,,38.73314970,-9.13249080,,,0,,,
10838,10838,R. Carolina M. Vasc./ R. José P. Chaves,,38.74446760,-9.19225070,,,0,,,
10834,10834,Colégio Militar (Metro),,38.75261500,-9.18983230,,,0,,,
10835,10835,Esc. Pedro Santarém,,38.74979070,-9.19425480,,,0,,,
10830,10830,Pupilos Exército,,38.74681070,-9.18461180,,,0,,,
10831,10831,R. Carolina Michaelis Vasconcelos,,38.74446670,-9.19416980,,,0,,,
10832,10832,Colégio Militar (Metro),,38.75261270,-9.18956480,,,0,,,
10833,10833,Colégio Militar (Metro),,38.75279870,-9.18972180,,,0,,,
14307,14307,Miraflores Norte,,38.71418320,-9.22734080,,,0,,,
14306,14306,Al. Fernão Lopes (Estação Miraflores),,38.71500770,-9.22943180,,,0,,,
14305,14305,Al. Fernão Lopes (Estação Miraflores),,38.71463870,-9.22921980,,,0,,,
14301,14301,Miraflores,,38.71401980,-9.22545630,,,0,,,
14309,14309,Miraflores,,38.71326520,-9.22528880,,,0,,,
14308,14308,Miraflores Norte,,38.71446020,-9.22695180,,,0,,,
14804,14804,Graça,,38.71727570,-9.12989280,,,0,,,
8316,8316,Cç. Grilo,,38.72979070,-9.10860280,,,0,,,
14805,14805,Lg. Graça,,38.71601770,-9.13060080,,,0,,,
8306,8306,Cç. Grilo,,38.73018070,-9.10804880,,,0,,,
14806,14806,R. D. Monteiro / Lg. Graça,,38.71806070,-9.13041580,,,0,,,
14801,14801,Voz Operário,,38.71507670,-9.12872380,,,0,,,
14802,14802,Voz Operário,,38.71503870,-9.12882480,,,0,,,
14803,14803,Graça,,38.71722970,-9.12976380,,,0,,,
9306,9306,R. Costa Pimenta (Centro Social),,38.71705870,-9.17344380,,,0,,,
322,322,Estação Roma-Areeiro,,38.74556370,-9.13555280,,,0,,,
323,323,Av. Pe. Manuel Nóbrega,,38.74298670,-9.13353380,,,0,,,
320,320,Estação Roma-Areeiro,,38.74557870,-9.13520280,,,0,,,
321,321,Estação Roma-Areeiro,,38.74558070,-9.13538880,,,0,,,
14908,14908,Aquário Vasco Gama,,38.69927070,-9.23751080,,,0,,,
14905,14905,Dafundo,,38.70017930,-9.24077690,,,0,,,
14904,14904,Dafundo - R. 1. Maio,,38.70073670,-9.24473780,,,0,,,
16004,16004,Fonte Pipa,,38.79600170,-9.14936180,,,0,,,
14907,14907,Aquário Vasco Gama,,38.69921130,-9.23753540,,,0,,,
16005,16005,Fonte Pipa,,38.79595170,-9.14951180,,,0,,,
14906,14906,Dafundo,,38.70024670,-9.24064480,,,0,,,
16006,16006,Az. Reguengo,,38.78841170,-9.14535780,,,0,,,
14901,14901,R. Bombeiros Voluntários Dafundo,,38.70023970,-9.24649680,,,0,,,
16007,16007,Az. Reguengo,,38.78842770,-9.14524880,,,0,,,
14903,14903,Dafundo - R. 1. Maio,,38.70066770,-9.24430580,,,0,,,
16001,16001,Fetais,,38.79809690,-9.14541990,,,0,,,
14902,14902,R. Bombeiros Voluntários Dafundo,,38.70035410,-9.24715700,,,0,,,
16002,16002,Az. Fetais,,38.79859200,-9.14757610,,,0,,,
16003,16003,Az. Fetais,,38.79870170,-9.14764480,,,0,,,
16008,16008,R. Cidade Luanda,,38.79048670,-9.14475580,,,0,,,
16009,16009,R. Cidade Luanda,,38.79085170,-9.14431180,,,0,,,
4308,4308,Cruz Quebrada (Fac. Motricidade Humana),,38.70536270,-9.25233880,,,0,,,
7308,7308,Av. Alm. Gago Coutinho / Av. EUA,,38.74800270,-9.13118880,,,0,,,
920,920,Pç. Figueira,,38.71310230,-9.13769880,,,0,,,
16307,16307,Qta. Francelha Baixo,,38.78823180,-9.12369140,,,0,,,
16306,16306,Qta. Francelha Cima,,38.78520980,-9.12431500,,,0,,,
16305,16305,Qta. Francelha Cima,,38.78586570,-9.12382880,,,0,,,
16304,16304,Rot. Encarnação,,38.78392570,-9.12478580,,,0,,,
16303,16303,Rot. Encarnação,,38.78356470,-9.12452980,,,0,,,
16302,16302,Rot. Encarnação,,38.78265170,-9.12520780,,,0,,,
16301,16301,Rot. Encarnação,,38.78236970,-9.12599780,,,0,,,
16309,16309,Prior Velho,,38.79011570,-9.12388180,,,0,,,
16308,16308,Qta. Francelha Baixo,,38.78830770,-9.12388180,,,0,,,
18125,18125,Av. Laranjeiras,,38.73735850,-9.22393000,,,0,,,
18124,18124,Av. Laranjeiras,,38.73744250,-9.22385760,,,0,,,
18127,18127,Av. Qta. Grande,,38.73963370,-9.22388380,,,0,,,
10401,10401,Caselas,,38.71695570,-9.21316080,,,0,,,
18126,18126,Av. Qta. Grande,,38.73951670,-9.22400480,,,0,,,
10402,10402,Fonte Caselas,,38.71579970,-9.21469780,,,0,,,
18121,18121,Av. Laranjeiras / Av. Qta. Grande,,38.73718770,-9.22133480,,,0,,,
10403,10403,Fonte Caselas,,38.71571770,-9.21479580,,,0,,,
18120,18120,Av. Laranjeiras / Av. Qta. Grande,,38.73735700,-9.22128740,,,0,,,
10404,10404,Caselas,,38.71699930,-9.21288750,,,0,,,
18123,18123,Av. Moinhos,,38.73680770,-9.22267180,,,0,,,
2328,2328,Rot. Cabo Ruivo,,38.75647840,-9.10297220,,,0,,,
10405,10405,Estr. Queluz,,38.71752350,-9.20987390,,,0,,,
18122,18122,Av. Moinhos,,38.73694770,-9.22257280,,,0,,,
10406,10406,Estr. Queluz,,38.71746370,-9.20952980,,,0,,,
18129,18129,Alfragide (Qta. Grande),,38.73550060,-9.21896490,,,0,,,
18128,18128,Alfragide Norte,,38.73946270,-9.22150480,,,0,,,
3308,3308,R. S. Pereira Gomes (Mercado),,38.74281070,-9.15850680,,,0,,,
10602,10602,Ascensor Glória,,38.71450470,-9.14434980,,,0,,,
10603,10603,R. Rosa / Trav. S. Pedro,,38.71490670,-9.14589180,,,0,,,
10601,10601,Ascensor Glória,,38.71491370,-9.14447380,,,0,,,
10606,10606,Príncipe Real,,38.71665970,-9.14851080,,,0,,,
10607,10607,R. Escola Politécnica,,38.71805160,-9.15182360,,,0,,,
10604,10604,S. Pedro Alcântara,,38.71545970,-9.14508880,,,0,,,
10605,10605,Príncipe Real,,38.71657470,-9.14810880,,,0,,,
10608,10608,R. Escola Politécnica,,38.71753970,-9.15104180,,,0,,,
10609,10609,Príncipe Real,,38.71652230,-9.14818010,,,0,,,
10501,10501,Pç. Luis Camões (B. Alto),,38.71115050,-9.14288140,,,0,,,
10503,10503,Lg. Trindade Coelho,,38.71318370,-9.14332880,,,0,,,
10502,10502,Pç. Luis Camões (B. Alto),,38.70994470,-9.14315080,,,0,,,
10505,10505,R. Rosa,,38.71270970,-9.14530980,,,0,,,
10504,10504,Lg. Trindade Coelho,,38.71255270,-9.14320780,,,0,,,
10507,10507,Bica - Lg. Calhariz,,38.71076760,-9.14579680,,,0,,,
10508,10508,Pç. Luis Camões (B. Alto),,38.71049250,-9.14386520,,,0,,,
10004,10004,Lapa,,38.71098670,-9.15847080,,,0,,,
10005,10005,R. Prior,,38.70674170,-9.16248380,,,0,,,
10006,10006,R. S. Domingos à Lapa,,38.70930770,-9.16170780,,,0,,,
10007,10007,R. Garcia Orta,,38.70727170,-9.16139980,,,0,,,
10001,10001,R. Santana à Lapa / R. Buenos Aires,,38.71033470,-9.16140780,,,0,,,
10003,10003,Lapa,,38.71120770,-9.15832380,,,0,,,
10008,10008,R. Garcia Orta,,38.70755470,-9.16135780,,,0,,,
10009,10009,R. S. João Mata,,38.70789070,-9.15908580,,,0,,,
10703,10703,B. Novo,,38.74433970,-9.17873680,,,0,,,
10702,10702,S. Domingos Benfica,,38.74570470,-9.18171980,,,0,,,
10701,10701,S. Domingos Benfica,,38.74556070,-9.18175480,,,0,,,
10707,10707,Esc. Delfim Santos,,38.74816270,-9.18095280,,,0,,,
10706,10706,R. Duarte Galvão,,38.74361570,-9.17551880,,,0,,,
10705,10705,R. Duarte Galvão,,38.74359770,-9.17613280,,,0,,,
10704,10704,B. Novo,,38.74459680,-9.17926640,,,0,,,
10709,10709,Alto Moinhos (Metro),,38.74935670,-9.18023180,,,0,,,
10708,10708,Esc. Delfim Santos,,38.74848670,-9.18165080,,,0,,,
10206,10206,Cova Moura,,38.70702670,-9.16762580,,,0,,,
10207,10207,Pç. Armada,,38.70497770,-9.17029180,,,0,,,
10204,10204,Av. Infante Santo,,38.70380670,-9.16823380,,,0,,,
10205,10205,Cova Moura,,38.70714770,-9.16739780,,,0,,,
10202,10202,Av. Infante Santo,,38.70350560,-9.16772470,,,0,,,
10203,10203,Av. Infante Santo,,38.70419270,-9.16795280,,,0,,,
10201,10201,Av. Infante Santo,,38.70340870,-9.16701780,,,0,,,
8308,8308,Al. Beato,,38.73275970,-9.10591980,,,0,,,
10208,10208,Pç. Armada,,38.70529600,-9.17066730,,,0,,,
10209,10209,Av. Infante Santo,,38.70458870,-9.16736080,,,0,,,
10105,10105,Fonte Santa,,38.71166550,-9.16933760,,,0,,,
10104,10104,Av. Inf. Santo / R. Santana à Lapa,,38.71139970,-9.16436580,,,0,,,
10107,10107,Esc. Josefa Óbidos,,38.71273270,-9.16694580,,,0,,,
10106,10106,Fonte Santa,,38.71199570,-9.16862380,,,0,,,
10101,10101,Av. Inf. Santo (Gasómetro),,38.70986970,-9.16585480,,,0,,,
10103,10103,Av. Inf. Santo / R. Santana à Lapa,,38.71202670,-9.16333780,,,0,,,
10102,10102,Av. Inf. Santo (Gasómetro),,38.70943370,-9.16667180,,,0,,,
9308,9308,R. Maria Pia,,38.71632970,-9.17263780,,,0,,,
10109,10109,Av. Inf. Santo / R. Santana à Lapa,,38.71185220,-9.16384960,,,0,,,
10108,10108,Esc. Josefa Óbidos,,38.71268470,-9.16646580,,,0,,,
11622,11622,Lg. Castelo,,38.79173570,-9.14732480,,,0,,,
11623,11623,R. Maluda,,38.79225670,-9.15325980,,,0,,,
11620,11620,Torrinha,,38.78812170,-9.15860880,,,0,,,
11621,11621,Lg. Castelo,,38.79161770,-9.14740780,,,0,,,
11624,11624,R. Maluda,,38.79201070,-9.15313380,,,0,,,
14713,14713,R. Ferreira Castro,,38.75416670,-9.12487880,,,0,,,
14712,14712,R. Ferreira Castro,,38.75448170,-9.12495980,,,0,,,
14711,14711,B. Flamenga,,38.75286070,-9.12342780,,,0,,,
14710,14710,Colégio Valsassina,,38.75545870,-9.12635880,,,0,,,
14717,14717,Pq. Bela Vista,,38.75027570,-9.12388380,,,0,,,
11521,11521,R. Luis Piçarra,,38.77589270,-9.15083480,,,0,,,
14716,14716,R. Pedro Cruz,,38.75002200,-9.11985820,,,0,,,
11520,11520,R. Luis Piçarra,,38.77590370,-9.15129480,,,0,,,
14715,14715,B. Flamenga,,38.75276270,-9.12359180,,,0,,,
11523,11523,Lumiar (Esc. Alto Lumiar),,38.77454360,-9.15537960,,,0,,,
14714,14714,Pq. Bela Vista,,38.75058670,-9.12391080,,,0,,,
11522,11522,Estação Alta Lisboa,,38.77485970,-9.14736380,,,0,,,
6404,6404,R. Augusto Gil,,38.74316170,-9.14048680,,,0,,,
10307,10307,R. Sítio,,38.71089570,-9.19339780,,,0,,,
10306,10306,R. Cruzeiro,,38.70950870,-9.19470880,,,0,,,
10305,10305,R. Cruzeiro,,38.70966470,-9.19494380,,,0,,,
10304,10304,Lg. Ajuda (Palácio),,38.70756370,-9.19615680,,,0,,,
10303,10303,Lg. Ajuda (Palácio),,38.70775970,-9.19641480,,,0,,,
10302,10302,Cç. Ajuda (GNR),,38.70644770,-9.19905280,,,0,,,
10301,10301,Cç. Ajuda (GNR),,38.70638270,-9.19918880,,,0,,,
10309,10309,Casalinho Ajuda,,38.70919870,-9.19199580,,,0,,,
10308,10308,R. Sítio,,38.71055870,-9.19344080,,,0,,,
7404,7404,Av. D. Rodrigo Cunha,,38.75485670,-9.13421580,,,0,,,
7414,7414,R. Conde Arnoso,,38.75549370,-9.13627680,,,0,,,
14115,14115,Cemitério Carnide,,38.77325870,-9.18292180,,,0,,,
14114,14114,R. Rio Minho,,38.77134670,-9.18644380,,,0,,,
14117,14117,Qta. Olival (C. Triagem),,38.77679390,-9.17481000,,,0,,,
14116,14116,Cemitério Carnide,,38.77305670,-9.18361980,,,0,,,
14111,14111,Mal Penteada,,38.76880270,-9.19580480,,,0,,,
14110,14110,Mal Penteada,,38.76893250,-9.19549100,,,0,,,
14113,14113,Serra Luz,,38.77243970,-9.19019280,,,0,,,
14112,14112,B. Padre Cruz,,38.76959470,-9.18962880,,,0,,,
14119,14119,Vale Forno,,38.77570070,-9.17810180,,,0,,,
14118,14118,Vale Forno,,38.77569270,-9.17834580,,,0,,,
12401,12401,R. Gregório Lopes,,38.71157270,-9.21485780,,,0,,,
12402,12402,R. Gregório Lopes,,38.71187870,-9.21416180,,,0,,,
12403,12403,Restelo - R. Antão Gonçalves,,38.70893270,-9.21434480,,,0,,,
12404,12404,Restelo - Av. Descobertas,,38.70982370,-9.21497880,,,0,,,
12405,12405,Restelo (Torres) - R. Antão Gonçalves,,38.70919970,-9.21145280,,,0,,,
12406,12406,Restelo (Torres) - R. Antão Gonçalves,,38.70935070,-9.21156480,,,0,,,
12407,12407,Restelo - Av. Descobertas,,38.70970370,-9.21545280,,,0,,,
12408,12408,Restelo,,38.71132570,-9.21036780,,,0,,,
12409,12409,Restelo - Av. Descobertas,,38.70898660,-9.21339940,,,0,,,
1404,1404,S. Sebastião,,38.73351870,-9.15338380,,,0,,,
1414,1414,S. Sebastião,,38.73479170,-9.15235880,,,0,,,
10808,10808,Colégio Militar (Metro),,38.75246080,-9.18902550,,,0,,,
10809,10809,Estádio Luz,,38.75440070,-9.18512080,,,0,,,
10804,10804,Calhariz,,38.74959870,-9.19131180,,,0,,,
10805,10805,R. Prof. Reinaldo Santos,,38.74769670,-9.18836180,,,0,,,
10806,10806,Calhariz,,38.74911620,-9.19024000,,,0,,,
10807,10807,Calhariz,,38.74865210,-9.19116560,,,0,,,
10801,10801,Esc. Pedro Santarém,,38.74981470,-9.19436080,,,0,,,
4506,4506,Sul e Sueste,,38.70812470,-9.13327580,,,0,,,
10802,10802,Esc. Pedro Santarém,,38.75013990,-9.19558380,,,0,,,
10803,10803,Calhariz (Escola),,38.74827270,-9.19264980,,,0,,,
14312,14312,Esc. Miraflores,,38.71139310,-9.22572500,,,0,,,
14311,14311,Esc. Miraflores,,38.71108470,-9.22618480,,,0,,,
14310,14310,Miraflores,,38.71324620,-9.22508280,,,0,,,
2404,2404,Oceanário Lisboa,,38.76127270,-9.09612180,,,0,,,
12602,12602,RALIS,,38.78091070,-9.12008880,,,0,,,
12603,12603,Qta. Morgado,,38.77937870,-9.12012580,,,0,,,
12601,12601,RALIS,,38.78165270,-9.11940980,,,0,,,
12607,12607,Portela - Av. República,,38.78354570,-9.11561580,,,0,,,
12604,12604,Qta. Morgado,,38.77913370,-9.12016580,,,0,,,
12605,12605,RALIS,,38.78309240,-9.11738260,,,0,,,
12608,12608,Portela - Av. República,,38.78361970,-9.11626480,,,0,,,
12501,12501,Fábrica Braço Prata,,38.74462570,-9.10101580,,,0,,,
12502,12502,Poço Bispo,,38.74246910,-9.10118500,,,0,,,
12505,12505,Beato,,38.73491070,-9.10469780,,,0,,,
12504,12504,Fábrica Braço Prata,,38.74494870,-9.10113780,,,0,,,
6506,6506,Estefânia - Av. Casal Ribeiro,,38.73190770,-9.14200080,,,0,,,
12506,12506,Beato,,38.73468570,-9.10511480,,,0,,,
12509,12509,Palácio Mitra,,38.73968270,-9.10286280,,,0,,,
11321,11321,Hosp. Júlio Matos,,38.75635570,-9.14694380,,,0,,,
10909,10909,Estr. Arneiros,,38.75420670,-9.19776580,,,0,,,
10908,10908,Estr. Benfica / Av. Gomes Pereira,,38.74930070,-9.19766680,,,0,,,
10905,10905,Estr. Benfica / Av. Gomes Pereira,,38.75065290,-9.19846750,,,0,,,
10904,10904,Igreja Benfica,,38.75083670,-9.20173080,,,0,,,
12004,12004,R. Luis Camões,,38.70453170,-9.18304280,,,0,,,
10907,10907,Estr. Benfica / Av. Gomes Pereira,,38.75013980,-9.19746580,,,0,,,
12005,12005,R. Luis Camões,,38.70410770,-9.18276580,,,0,,,
10906,10906,Estr. Benfica / Av. Gomes Pereira,,38.75078970,-9.19861280,,,0,,,
12006,12006,Alto Sto. Amaro,,38.70512270,-9.18765180,,,0,,,
10901,10901,Estr. Benfica (Mercado),,38.75202270,-9.20550980,,,0,,,
12007,12007,Alto Sto. Amaro,,38.70490070,-9.18742280,,,0,,,
10903,10903,Igreja Benfica,,38.75061670,-9.20144980,,,0,,,
7506,7506,Av. Mar. Gomes Costa (Qta. Teresinhas),,38.76171270,-9.12208580,,,0,,,
12001,12001,Alto Sto. Amaro,,38.70237070,-9.18807880,,,0,,,
10902,10902,Estr. Benfica (Mercado),,38.75199700,-9.20523760,,,0,,,
7516,7516,Pç. Aeroporto,,38.76278370,-9.12900180,,,0,,,
12002,12002,Jardim Alto Sto. Amaro,,38.70404360,-9.18573760,,,0,,,
12003,12003,Jardim Alto Sto. Amaro,,38.70448270,-9.18480880,,,0,,,
12008,12008,R. Aliança Operária,,38.70441170,-9.18958680,,,0,,,
12009,12009,Alto Sto. Amaro,,38.70252070,-9.18775280,,,0,,,
12703,12703,Cç. Palma Baixo,,38.74629470,-9.16788880,,,0,,,
12702,12702,Cç. Palma Baixo / Estr. Laranjeiras,,38.74507870,-9.16862280,,,0,,,
12707,12707,Estr. Laranjeiras,,38.74556270,-9.16933980,,,0,,,
12706,12706,Universidade Católica,,38.74820770,-9.16541380,,,0,,,
12705,12705,Universidade Católica,,38.74804700,-9.16517510,,,0,,,
12704,12704,Cç. Palma Baixo,,38.74689270,-9.16788080,,,0,,,
12709,12709,Laranjeiras (Metro),,38.74756570,-9.17091780,,,0,,,
12708,12708,Estr. Laranjeiras,,38.74526770,-9.16930780,,,0,,,
12206,12206,Igreja Encarnação,,38.77357670,-9.11866480,,,0,,,
12207,12207,R. Lojistas,,38.77294070,-9.11535480,,,0,,,
12204,12204,Encarnação,,38.77108670,-9.12187180,,,0,,,
12205,12205,Igreja Encarnação,,38.77270270,-9.11837380,,,0,,,
12202,12202,Encarnação (Bombeiros),,38.76961870,-9.12313280,,,0,,,
12203,12203,Encarnação,,38.77081470,-9.12155080,,,0,,,
1506,1506,Pç. Espanha,,38.73839120,-9.15848480,,,0,,,
12201,12201,Encarnação (Bombeiros),,38.77020070,-9.12313580,,,0,,,
1516,1516,R. Ramalho Ortigão,,38.73599770,-9.15791880,,,0,,,
12208,12208,R. Lojistas,,38.77406970,-9.11677580,,,0,,,
12209,12209,Encarnação (Bombeiros),,38.76945870,-9.12316580,,,0,,,
5810,5810,Campo Grande Norte,,38.75973270,-9.15582380,,,0,,,
12105,12105,Calvário,,38.70539670,-9.17630480,,,0,,,
12104,12104,R. Leão Oliveira,,38.70464740,-9.17847710,,,0,,,
5830,5830,Qta. Conchas (Metro),,38.76670790,-9.15584510,,,0,,,
12107,12107,Estação Sto. Amaro,,38.70303170,-9.17977780,,,0,,,
5840,5840,R. Agostinho Neto,,38.76175170,-9.15411180,,,0,,,
12106,12106,Estação Sto. Amaro,,38.70242470,-9.18031880,,,0,,,
12101,12101,Calvário,,38.70455770,-9.17649580,,,0,,,
12103,12103,R. Lusíadas / R. Leão Oliveira,,38.70575070,-9.17818580,,,0,,,
12102,12102,Calvário,,38.70466170,-9.17656480,,,0,,,
12108,12108,Estação Sto. Amaro,,38.70199370,-9.18103580,,,0,,,
5604,5604,R. Conceição,,38.70956800,-9.13747760,,,0,,,
8414,8414,R. Cidade Bissau (Metro),,38.76035770,-9.11166780,,,0,,,
8404,8404,Olivais Sul,,38.76404870,-9.11902580,,,0,,,
8424,8424,Cemitério Olivais,,38.76243470,-9.10979580,,,0,,,
6820,6820,R. Braamcamp,,38.72169070,-9.15156580,,,0,,,
6810,6810,Rato,,38.72003570,-9.15511680,,,0,,,
9404,9404,Tv. Horta Navia,,38.70892470,-9.17201780,,,0,,,
6604,6604,R. Bernardim Ribeiro,,38.72499170,-9.14417880,,,0,,,
9414,9414,Alcântara,,38.70688470,-9.17313980,,,0,,,
9424,9424,Travessa Sebeiro,,38.70850970,-9.17592080,,,0,,,
9434,9434,R. Cruz / R. Feliciano Sousa,,38.70816820,-9.17410590,,,0,,,
12307,12307,R. Capitão-Ten. Oliveira Carmo,,38.77605170,-9.11353680,,,0,,,
12306,12306,R. Alf. Barrilaro Ruas,,38.77707270,-9.11589380,,,0,,,
7810,7810,Pç. José Queirós,,38.77442770,-9.10602980,,,0,,,
12305,12305,R. Alf. Barrilaro Ruas,,38.77716870,-9.11616180,,,0,,,
12304,12304,B. Encarnação,,38.77475770,-9.11418880,,,0,,,
12303,12303,B. Encarnação,,38.77534770,-9.11337780,,,0,,,
12302,12302,Olivais Norte,,38.77507970,-9.11140680,,,0,,,
12301,12301,Olivais Norte,,38.77538070,-9.11076280,,,0,,,
12309,12309,Olivais Norte,,38.77442970,-9.11116580,,,0,,,
12308,12308,R. Capitão-Ten. Oliveira Carmo,,38.77609470,-9.11382680,,,0,,,
7604,7604,Av. Berlim (Aeroporto),,38.77015770,-9.12734880,,,0,,,
61102,61102,R. Leandro Braga,,38.72990070,-9.16439280,,,0,,,
61103,61103,Cç. Quintinha,,38.72595350,-9.16940940,,,0,,,
61101,61101,Cç. Quintinha,,38.72584150,-9.16893290,,,0,,,
1810,1810,Av. República,,38.73847170,-9.14610680,,,0,,,
1604,1604,Sete Rios,,38.74165610,-9.16780830,,,0,,,
1614,1614,Sete Rios,,38.74201710,-9.16846940,,,0,,,
1624,1624,R. Fernando Sylan,,38.74020870,-9.17334980,,,0,,,
12808,12808,Qta. Inglesinhos,,38.76317670,-9.18057880,,,0,,,
2810,2810,B. Calhariz Benfica,,38.74210070,-9.20009480,,,0,,,
12809,12809,Av. Cidade Praga (Lispolis),,38.76567070,-9.18228580,,,0,,,
12804,12804,Lg. Luz,,38.76030470,-9.18287580,,,0,,,
12805,12805,Av. Norton Matos (Torres Lisboa),,38.75783200,-9.17536790,,,0,,,
12806,12806,Av. Norton Matos (Torres Lisboa),,38.75748230,-9.17519370,,,0,,,
12807,12807,Av. Cidade Praga (Lispolis),,38.76548170,-9.18264280,,,0,,,
12801,12801,Qta. Luz,,38.75727470,-9.18540580,,,0,,,
12802,12802,Qta. Luz,,38.75717170,-9.18567880,,,0,,,
12803,12803,Lg. Luz,,38.76002170,-9.18274880,,,0,,,
16315,16315,Prior Velho,,38.79019670,-9.12311980,,,0,,,
5902,5902,Av. Rainha D. Leonor,,38.76767570,-9.15837780,,,0,,,
16314,16314,R. Diu,,38.79149070,-9.12332880,,,0,,,
5912,5912,Lumiar - Av. Padre Cruz,,38.77471670,-9.16313580,,,0,,,
16313,16313,Prior Velho - R. Maestro Lopes Graça,,38.79274670,-9.12159680,,,0,,,
5922,5922,Ameixoeira (Metro),,38.77963370,-9.15978880,,,0,,,
16312,16312,R. Cabo Verde,,38.79122970,-9.12090780,,,0,,,
5932,5932,INETI,,38.76917770,-9.17923180,,,0,,,
5942,5942,R. Prof. Fernando Mello Moser,,38.77094970,-9.16871780,,,0,,,
16310,16310,Prior Velho,,38.79021470,-9.12434780,,,0,,,
5952,5952,R. Fernando Lopes Graça,,38.77015470,-9.16901380,,,0,,,
3820,3820,Corpo Santo,,38.70727570,-9.14133490,,,0,,,
3810,3810,Cais Sodré,,38.70578970,-9.14311580,,,0,,,
8516,8516,R. Amoreiras,,38.72334970,-9.15941080,,,0,,,
6902,6902,Gomes Freire,,38.72592870,-9.14062680,,,0,,,
3604,3604,Lg. Broma,,38.74234670,-9.11677680,,,0,,,
9506,9506,Hosp. Egas Moniz,,38.69844070,-9.18835780,,,0,,,
7902,7902,Moscavide Centro,,38.77990870,-9.10247680,,,0,,,
7912,7912,Estr. Moscavide,,38.77278370,-9.09996480,,,0,,,
18135,18135,Estr. Seminário,,38.73445670,-9.22050280,,,0,,,
18134,18134,Alfragide (NATO),,38.73720570,-9.21609780,,,0,,,
18136,18136,Estr. Seminário,,38.73432670,-9.22040980,,,0,,,
18131,18131,Alfragide (Qta. Grande),,38.73576750,-9.21877690,,,0,,,
18130,18130,Estr. Alfragide / R. Encosta,,38.73476170,-9.22135980,,,0,,,
18133,18133,Av. Almeida Garrett,,38.73826470,-9.21793380,,,0,,,
18132,18132,Av. Almeida Garrett,,38.73836870,-9.21776080,,,0,,,
6036,6036,R. Raul Rego (Escola),,38.78296070,-9.14955180,,,0,,,
6026,6026,Esc. S. Gonçalo,,38.78382670,-9.14933680,,,0,,,
6016,6016,R. Melo Antunes,,38.77904670,-9.14478480,,,0,,,
6006,6006,Campo Amoreiras,,38.78545170,-9.14319480,,,0,,,
12909,12909,Cemitério Ajuda,,38.70937670,-9.20335180,,,0,,,
12908,12908,Pólo Universitário Ajuda - Estr. Marcos,,38.71333270,-9.20086880,,,0,,,
12905,12905,Caramão (Ajuda),,38.71445470,-9.20455680,,,0,,,
12904,12904,B. Ajuda (Escola),,38.71172970,-9.20110980,,,0,,,
12907,12907,Estr. Marcos,,38.71341370,-9.20265580,,,0,,,
12906,12906,Caramão (Ajuda),,38.71458370,-9.20451780,,,0,,,
12901,12901,Ajuda,,38.70913670,-9.19998080,,,0,,,
12903,12903,B. Ajuda (Escola),,38.71165570,-9.20123280,,,0,,,
12902,12902,Ajuda,,38.70941070,-9.19992780,,,0,,,
7006,7006,Esc. Nuno Gonçalves,,38.72719770,-9.12838880,,,0,,,
7016,7016,R. Cesário Verde,,38.73004370,-9.13034480,,,0,,,
1902,1902,Campo Pequeno - Av. República,,38.74190680,-9.14697750,,,0,,,
10612,10612,R. Nova S. Mamede,,38.71965670,-9.15113680,,,0,,,
10613,10613,R. Taipas,,38.71667670,-9.14528280,,,0,,,
10610,10610,Príncipe Real,,38.71589780,-9.14827920,,,0,,,
10614,10614,Pç. Alegria,,38.71793520,-9.14472980,,,0,,,
10615,10615,R. Taipas - Glória,,38.71508220,-9.14372340,,,0,,,
2902,2902,R. Prof. Jorge Silva Horta,,38.74585250,-9.20476190,,,0,,,
10511,10511,Calhariz (Bica),,38.71081870,-9.14599980,,,0,,,
10510,10510,Calhariz (Bica),,38.71080370,-9.14531880,,,0,,,
10513,10513,Pç. Luis Camões (B. Alto),,38.71054260,-9.14382280,,,0,,,
10512,10512,Pç. Luis Camões (B. Alto),,38.71079070,-9.14358980,,,0,,,
10515,10515,Chiado,,38.70983870,-9.14248420,,,0,,,
10514,10514,Chiado,,38.71042670,-9.14207180,,,0,,,
10517,10517,R. Vitor Cordon,,38.70794530,-9.14257220,,,0,,,
10516,10516,R. Vitor Cordon / R. Serpa Pinto,,38.70826770,-9.14197580,,,0,,,
10519,10519,R. Vitor Cordon / R. Serpa Pinto,,38.70796470,-9.14141580,,,0,,,
10518,10518,Lg. Academia Nacional Belas Artes,,38.70807470,-9.14045880,,,0,,,
1006,1006,Restauradores,,38.71580370,-9.14201480,,,0,,,
1016,1016,Av. Liberdade - Lavra,,38.71777930,-9.14339730,,,0,,,
8840,8840,Lisboa Clube Ténis,,38.73054970,-9.20375080,,,0,,,
8820,8820,Buraca (B. Tacha),,38.74235970,-9.21152380,,,0,,,
3922,3922,Lg. Vitorino Damásio,,38.70733570,-9.15446280,,,0,,,
3902,3902,Santos,,38.70623760,-9.15597810,,,0,,,
3912,3912,Santos,,38.70672470,-9.15586980,,,0,,,
10014,10014,R. Santana à Lapa,,38.71083670,-9.16136580,,,0,,,
10015,10015,R. S. Domingos à Lapa,,38.70892570,-9.16191580,,,0,,,
10016,10016,R. S. Domingos à Lapa,,38.70971370,-9.16243380,,,0,,,
10010,10010,R. S. João Mata,,38.70770670,-9.15966580,,,0,,,
10011,10011,R. Buenos Aires,,38.71144220,-9.16079170,,,0,,,
10012,10012,R. Buenos Aires,,38.71212270,-9.16035680,,,0,,,
10013,10013,R. Santana à Lapa,,38.71005670,-9.16245680,,,0,,,
8614,8614,R. D. António Luis Sousa,,38.72511770,-9.16766180,,,0,,,
8604,8604,B. Bela Flor,,38.72444370,-9.16918480,,,0,,,
2016,2016,Entrecampos - Av. EUA,,38.74871870,-9.14664780,,,0,,,
2006,2006,Entrecampos Norte,,38.74931060,-9.14936640,,,0,,,
9810,9810,Av. Inf. D. Henrique (Ponte Xabregas),,38.72439870,-9.11213380,,,0,,,
9820,9820,Qta. Peixinhos,,38.72274470,-9.12146280,,,0,,,
10711,10711,R. Conde Almoster / Tv. S. Domingos,,38.74341570,-9.18050380,,,0,,,
10710,10710,Alto Moinhos (Metro),,38.74915850,-9.18005590,,,0,,,
10717,10717,R. Sousa Loureiro,,38.74472370,-9.18381880,,,0,,,
10714,10714,B. Furnas,,38.74123370,-9.17619280,,,0,,,
9604,9604,Mosteiro Jerónimos,,38.69778470,-9.20442980,,,0,,,
9614,9614,Av. Restelo (Estádio),,38.70052970,-9.20978980,,,0,,,
10719,10719,Tv. S. Domingos Benfica,,38.74232270,-9.18189180,,,0,,,
10718,10718,R. Francisco Gentil Martins,,38.74009670,-9.17399080,,,0,,,
3006,3006,R. Carvalho Araújo,,38.74762960,-9.22152270,,,0,,,
3016,3016,Buraca - Av. República,,38.74608870,-9.21226780,,,0,,,
6130,6130,Campolide,,38.72676670,-9.16199180,,,0,,,
6120,6120,Campolide (Av. Cons. Fernando Sousa),,38.72629920,-9.16119880,,,0,,,
6110,6110,B. Campolide,,38.72851470,-9.16598480,,,0,,,
10214,10214,R. Prior / R. Ribeiro Sanches,,38.70625570,-9.16575080,,,0,,,
10212,10212,R. Presidente Arriaga,,38.70461570,-9.16359080,,,0,,,
10213,10213,R. Olival,,38.70479870,-9.16657580,,,0,,,
10210,10210,Av. Infante Santo,,38.70476570,-9.16775580,,,0,,,
10211,10211,R. Presidente Arriaga,,38.70448270,-9.16418180,,,0,,,
10114,10114,R. Borja / R. Possidónio Silva,,38.71020470,-9.17059280,,,0,,,
10111,10111,R. Santana à Lapa / R. Possolo,,38.71280510,-9.16524300,,,0,,,
10113,10113,R. Borja,,38.71118870,-9.16724680,,,0,,,
10112,10112,R. Santana à Lapa / R. Possolo,,38.71258270,-9.16544980,,,0,,,
11612,11612,Grafanil,,38.79311870,-9.15523380,,,0,,,
11613,11613,Galinheiras,,38.79208470,-9.15029480,,,0,,,
11610,11610,Qta. Balsares,,38.79408470,-9.15199480,,,0,,,
11611,11611,Qta. Balsares,,38.79338470,-9.15313180,,,0,,,
11616,11616,Qta. Balsares,,38.79314370,-9.15311080,,,0,,,
11617,11617,Rampa Mercado,,38.79276270,-9.14817480,,,0,,,
11614,11614,Qta. Torrinha,,38.79060970,-9.15734180,,,0,,,
11615,11615,Rampa Mercado,,38.79238870,-9.14811080,,,0,,,
11618,11618,Torrinha,,38.78777670,-9.15907080,,,0,,,
11619,11619,Piscina Municipal Ameixoeira,,38.78581680,-9.15980740,,,0,,,
11511,11511,Esc. Pintor Almada Negreiros,,38.77713470,-9.14646180,,,0,,,
11510,11510,Av. Carlos Paredes,,38.77441570,-9.15214390,,,0,,,
11513,11513,R. Helena Vaz Silva,,38.77311270,-9.15321480,,,0,,,
11512,11512,R. Helena Vaz Silva,,38.77318940,-9.15294360,,,0,,,
11515,11515,Av. David Mourão Ferreira (C. Social),,38.77724480,-9.15573670,,,0,,,
11514,11514,Av. David Mourão Ferreira (C. Social),,38.77727370,-9.15553450,,,0,,,
6405,6405,Pç. Londres,,38.74138470,-9.13744580,,,0,,,
11517,11517,Av. David Mourão Ferreira,,38.77747270,-9.15201880,,,0,,,
11516,11516,Av. David Mourão Ferreira,,38.77736670,-9.15232380,,,0,,,
11519,11519,Av. Maria Helena Vieira Silva,,38.76686870,-9.15167780,,,0,,,
11518,11518,Av. Maria Helena Vieira Silva,,38.76688170,-9.15102980,,,0,,,
10317,10317,Pólo Univ. Ajuda - Av. Univ. Técnica,,38.71114660,-9.19576190,,,0,,,
10316,10316,Pólo Univ. Ajuda - Av. Univ. Técnica,,38.71175700,-9.19541170,,,0,,,
10315,10315,Pólo Universitário Ajuda,,38.71394170,-9.19697380,,,0,,,
10314,10314,R. Cruzeiro,,38.71006470,-9.19495780,,,0,,,
10313,10313,Pólo Universitário Ajuda,,38.71283570,-9.19588480,,,0,,,
8912,8912,Olaias (Piscina),,38.73991070,-9.12406780,,,0,,,
10312,10312,R. Fonseca Benevides,,38.71019670,-9.19133580,,,0,,,
8902,8902,R. Frei Fortunato S. Boaventura,,38.73601770,-9.12293280,,,0,,,
10311,10311,R. Armando Lucena,,38.71073420,-9.19641170,,,0,,,
8922,8922,R. João Nascimento Costa,,38.73730070,-9.12547280,,,0,,,
10310,10310,Palácio Nacional Ajuda,,38.70716970,-9.19909780,,,0,,,
10319,10319,R. Cruzeiro / Tv. José Fernandes,,38.70803970,-9.19272380,,,0,,,
10318,10318,R. Cruzeiro / Tv. Pardal,,38.70686970,-9.19110280,,,0,,,
4202,4202,Algés (Mercado),,38.70138220,-9.22705480,,,0,,,
11010,11010,Estr. Benfica (Mercado),,38.75253070,-9.20646280,,,0,,,
7405,7405,Av. D. Rodrigo Cunha,,38.75471170,-9.13410980,,,0,,,
2130,2130,Mercado Sta. Clara,,38.71566770,-9.12581480,,,0,,,
2110,2110,Cais Lingueta (Museu Fado),,38.71114170,-9.12736950,,,0,,,
9902,9902,R. S. Paulo (Bica),,38.70845070,-9.14703940,,,0,,,
8016,8016,Campo Ourique (Prazeres),,38.71425870,-9.16997680,,,0,,,
8006,8006,R. 4 Infantaria,,38.72023670,-9.16544180,,,0,,,
9006,9006,Olaias - Av. Afonso Costa,,38.73861750,-9.12733230,,,0,,,
11210,11210,Av. Frei Miguel Contreiras,,38.74614170,-9.13651680,,,0,,,
1405,1405,B. Azul,,38.73333670,-9.15473780,,,0,,,
11211,11211,Av. Frei Miguel Contreiras,,38.74580570,-9.13711480,,,0,,,
10818,10818,R. Carolina Michaelis Vasconcelos,,38.74449570,-9.19303980,,,0,,,
10819,10819,Colégio Militar (Metro),,38.75267570,-9.18951080,,,0,,,
10814,10814,Calhariz,,38.74895070,-9.19126780,,,0,,,
10815,10815,Calhariz - R. Ten. Coronel Ribeiro Reis,,38.74634270,-9.18965080,,,0,,,
10816,10816,Colégio Militar (Metro),,38.75201270,-9.18791380,,,0,,,
10817,10817,R. Carolina Michaelis Vasconcelos,,38.74426170,-9.19429480,,,0,,,
10810,10810,Estádio Luz,,38.75405170,-9.18603080,,,0,,,
10811,10811,Colégio Militar (Metro),,38.75290870,-9.18963280,,,0,,,
4505,4505,Sul e Sueste,,38.70828070,-9.13346780,,,0,,,
10812,10812,Colégio Militar (Metro),,38.75247270,-9.18953380,,,0,,,
10813,10813,Colégio Militar (Metro),,38.75288790,-9.18815920,,,0,,,
7222,7222,Chapeleiro 1,,38.79043970,-9.15971080,,,0,,,
7202,7202,Cç. Carriche / Estr. Desvio,,38.78217300,-9.16472750,,,0,,,
7212,7212,R. Formosinho Sanchez,,38.78021560,-9.16930520,,,0,,,
11115,11115,Lg. Leão,,38.73457370,-9.13732480,,,0,,,
11114,11114,Av. Manuel Maia,,38.73714070,-9.13637280,,,0,,,
11117,11117,Av. Defensores Chaves,,38.73880170,-9.14438980,,,0,,,
11116,11116,Lg. Leão,,38.73473170,-9.13721380,,,0,,,
11111,11111,Alameda D. A. Henriques,,38.73693270,-9.13634580,,,0,,,
11110,11110,R. Visconde Santarém,,38.73496870,-9.13994380,,,0,,,
2405,2405,Av. Fernando Pessoa,,38.75854970,-9.09729480,,,0,,,
11118,11118,Arco Cego - Av. Miguel Bombarda,,38.73770370,-9.14283080,,,0,,,
5515,5515,Pç. Comércio,,38.70817270,-9.13710780,,,0,,,
5603,5603,R. Madalena,,38.70988670,-9.13503180,,,0,,,
6505,6505,R. Ponta Delgada,,38.73281070,-9.13863480,,,0,,,
1202,1202,Mq. Pombal - Av. Duque Loulé,,38.72557370,-9.14861380,,,0,,,
1212,1212,Marquês Pombal,,38.72466670,-9.15085280,,,0,,,
11317,11317,Esc. Padre António Vieira,,38.75776370,-9.13620980,,,0,,,
11316,11316,Pote Água,,38.75912070,-9.13713680,,,0,,,
11315,11315,Bombeiros Alvalade,,38.75679670,-9.13968880,,,0,,,
11314,11314,Bombeiros Alvalade,,38.75634570,-9.13999180,,,0,,,
11312,11312,LNEC,,38.75779540,-9.14074110,,,0,,,
11310,11310,R. Murtas / Av. Brasil,,38.75599170,-9.14875280,,,0,,,
11319,11319,Pote Água,,38.75943570,-9.13582580,,,0,,,
6603,6603,R. Bernardim Ribeiro,,38.72502870,-9.14401180,,,0,,,
11318,11318,R. Reinaldo Ferreira,,38.75757170,-9.13797680,,,0,,,
10919,10919,Al. Padre Álvaro Proença,,38.74855770,-9.20146980,,,0,,,
10918,10918,Al. Padre Álvaro Proença,,38.74889870,-9.20124380,,,0,,,
10915,10915,Benfica - Al. Pe. Álvaro Proença,,38.74924850,-9.20272300,,,0,,,
10914,10914,Av. Uruguai,,38.75150470,-9.19726280,,,0,,,
10917,10917,Qta. Granja,,38.75446620,-9.19547880,,,0,,,
10916,10916,Qta. Granja,,38.75471420,-9.19608080,,,0,,,
10911,10911,Qta. Granja - Av. Uruguai,,38.75287370,-9.19681080,,,0,,,
10910,10910,Estr. Arneiros,,38.75448370,-9.19781480,,,0,,,
10913,10913,Av. Uruguai,,38.75144270,-9.19748680,,,0,,,
7505,7505,Av. Alm. Gago Coutinho (Rot. Relógio),,38.76237270,-9.12944780,,,0,,,
10912,10912,Qta. Granja - Av. Uruguai,,38.75322570,-9.19634080,,,0,,,
7515,7515,Av. Brasil (Rot. Relógio),,38.76248370,-9.13036680,,,0,,,
2212,2212,Av. Paulo VI,,38.74798670,-9.10780080,,,0,,,
2202,2202,Fábrica Gás,,38.75101070,-9.09588780,,,0,,,
7603,7603,Av. Berlim (Aeroporto),,38.76983070,-9.12658980,,,0,,,
8110,8110,Estrela - R. Domingos Sequeira,,38.71451170,-9.16210780,,,0,,,
15105,15105,Odivelas (B. Dr. Lima Pimentel),,38.78666490,-9.18297850,,,0,,,
15104,15104,Av. D. Dinis,,38.78946970,-9.17719780,,,0,,,
15107,15107,R. Bomb. Voluntário / Al. I. D. Henrique,,38.78881670,-9.17581380,,,0,,,
15106,15106,R. Bombeiros Voluntários,,38.78699670,-9.17814380,,,0,,,
15101,15101,Odivelas (B. Dr. Lima Pimentel),,38.78610170,-9.18320480,,,0,,,
15103,15103,Av. D. Dinis (Bombeiros Odivelas),,38.78679720,-9.18047880,,,0,,,
15102,15102,Av. D. Dinis (Bombeiros Odivelas),,38.78732570,-9.17991880,,,0,,,
78103,78103,Cais Olival,,38.77720370,-9.09426580,,,0,,,
78102,78102,Cais Olival,,38.77604210,-9.09515060,,,0,,,
78101,78101,Cais Olival,,38.77614270,-9.09496480,,,0,,,
9110,9110,Sapadores,,38.72128870,-9.12918980,,,0,,,
9120,9120,Tv. Sto. António,,38.71917970,-9.12797680,,,0,,,
9130,9130,R. Graça,,38.71903870,-9.12983380,,,0,,,
78104,78104,Cais Olival - Al. Oceanos,,38.77592670,-9.09475380,,,0,,,
1505,1505,Pç. Espanha,,38.73810720,-9.15995280,,,0,,,
1515,1515,Av. José Malhoa (Policia Municipal),,38.73642070,-9.16095080,,,0,,,
1603,1603,Sete Rios,,38.74176640,-9.16760370,,,0,,,
1613,1613,Av. José Malhoa,,38.73757070,-9.16449880,,,0,,,
1623,1623,R. Raul Carapinha,,38.74140670,-9.17363280,,,0,,,
5801,5801,Hipódromo,,38.75761970,-9.16249880,,,0,,,
5811,5811,Hosp. Pulido Valente,,38.76456870,-9.15699480,,,0,,,
5841,5841,Campo Grande (Metro),,38.76041180,-9.15652930,,,0,,,
5605,5605,R. Conceição,,38.70931870,-9.13817380,,,0,,,
8435,8435,C. Comercial Olivais,,38.76151270,-9.11398280,,,0,,,
8425,8425,R. Cons. Emídio Navarro,,38.75660170,-9.11829180,,,0,,,
6821,6821,Rato,,38.72087990,-9.15583130,,,0,,,
6811,6811,Rato,,38.72028770,-9.15378580,,,0,,,
6801,6801,Av. Álvares Cabral,,38.71748770,-9.15732380,,,0,,,
5703,5703,Campo Grande - Av. Brasil,,38.75481570,-9.15209680,,,0,,,
9405,9405,R. Maria Pia,,38.71244030,-9.17360210,,,0,,,
6605,6605,R. Luciano Cordeiro,,38.72688670,-9.14568080,,,0,,,
9415,9415,Alcântara - Av. Ceuta,,38.70725770,-9.17352980,,,0,,,
9425,9425,Alcântara - Av. Ceuta,,38.70813070,-9.17385280,,,0,,,
3603,3603,Lg. Broma,,38.74233270,-9.11693980,,,0,,,
7821,7821,Av. D. João II,,38.77155970,-9.09733980,,,0,,,
7801,7801,R. Sarg. Armando Monteiro Ferreira,,38.77190370,-9.10986380,,,0,,,
7811,7811,Pç. José Queirós,,38.77301970,-9.10509080,,,0,,,
6723,6723,R. S. Bento / Cç. Estrela,,38.71097470,-9.15263480,,,0,,,
6713,6713,Pç. Flores,,38.71483290,-9.15158340,,,0,,,
6703,6703,Palácio S. Bento (Jardim),,38.71339270,-9.15315280,,,0,,,
7605,7605,R. C (Aeroporto),,38.77412870,-9.12587180,,,0,,,
2320,2320,Av. Inf. D. Henrique (Centieira),,38.75993170,-9.10366680,,,0,,,
2310,2310,Rot. Cabo Ruivo,,38.75483280,-9.10318260,,,0,,,
7723,7723,R. Cidade Benguela,,38.76578770,-9.11334580,,,0,,,
7703,7703,Av. Berlim (Viveiros),,38.76892070,-9.11783980,,,0,,,
7713,7713,Piscina Olivais,,38.77003670,-9.10898980,,,0,,,
8202,8202,Alfândega (Terminal Cruzeiros),,38.70964430,-9.12901180,,,0,,,
3310,3310,R. Soeiro Pereira Gomes,,38.74513570,-9.15935780,,,0,,,
1801,1801,Saldanha,,38.73367770,-9.14463080,,,0,,,
1811,1811,Av. Miguel Bombarda (ISCAL),,38.73716270,-9.14670180,,,0,,,
79123,79123,R. Chen He,,38.78875870,-9.09953280,,,0,,,
79122,79122,Parque Nações Norte,,38.79377570,-9.09753880,,,0,,,
79121,79121,Via Oriente,,38.79164770,-9.09919980,,,0,,,
79120,79120,Via Oriente,,38.79208070,-9.09936480,,,0,,,
9202,9202,Paço Rainha,,38.72339370,-9.13769880,,,0,,,
79127,79127,Estação Sacavém,,38.79609070,-9.09962080,,,0,,,
9212,9212,Campo Santana,,38.72417670,-9.13986880,,,0,,,
79126,79126,Pç. República,,38.79655200,-9.10407400,,,0,,,
79125,79125,Sacavém (Urb. Real Forte),,38.79417470,-9.10369280,,,0,,,
79124,79124,Estação Sacavém,,38.79569970,-9.10019180,,,0,,,
1605,1605,Esc. D. Pedro V,,38.74122570,-9.16324280,,,0,,,
1615,1615,Estr. Benfica (Furnas),,38.74242070,-9.17240280,,,0,,,
1625,1625,R. Alcina Bastos,,38.74126670,-9.17596280,,,0,,,
2811,2811,Estação Benfica,,38.74472570,-9.19912170,,,0,,,
2801,2801,Estação Benfica - Av. Gomes Pereira,,38.74528770,-9.19794680,,,0,,,
1703,1703,Picoas,,38.73140570,-9.14611280,,,0,,,
1713,1713,Picoas,,38.73104070,-9.14632480,,,0,,,
5901,5901,Av. Rainha D. Leonor,,38.76719070,-9.15791680,,,0,,,
5911,5911,Ameixoeira - Estr. Desvio,,38.77883270,-9.16338680,,,0,,,
5921,5921,R. Prof. M. Valadares,,38.77578820,-9.16007610,,,0,,,
5931,5931,Ameixoeira,,38.78208470,-9.15874480,,,0,,,
5941,5941,R. Prof. Fernando Mello Moser,,38.77089970,-9.16882680,,,0,,,
5951,5951,R. Fernando Lopes Graça,,38.77026770,-9.16909480,,,0,,,
3821,3821,Corpo Santo,,38.70730390,-9.14195050,,,0,,,
3801,3801,Cais Sodré,,38.70590570,-9.14311080,,,0,,,
3811,3811,Cais Sodré,,38.70566470,-9.14312480,,,0,,,
5705,5705,Campo Grande - Av. Brasil,,38.75563370,-9.15143580,,,0,,,
8515,8515,R. Amoreiras,,38.72387270,-9.15961980,,,0,,,
2723,2723,B. Liberdade,,38.73089470,-9.17307980,,,0,,,
2713,2713,Av. José Malhoa,,38.73773470,-9.16762780,,,0,,,
2703,2703,R. C (B. Liberdade),,38.73513670,-9.17182780,,,0,,,
6901,6901,Gomes Freire,,38.72557770,-9.14075080,,,0,,,
3605,3605,Bela Vista (Centro Comercial),,38.74823770,-9.11870980,,,0,,,
3615,3615,Av. Cidade Bratislava,,38.75027070,-9.11705380,,,0,,,
8613,8613,R. Particular Arco Carvalhão,,38.72444170,-9.16688180,,,0,,,
8603,8603,R. Bela Flor,,38.72353070,-9.17093480,,,0,,,
6725,6725,Cç. Estrela / R. Dr. Teófilo Braga,,38.71268210,-9.15719350,,,0,,,
6715,6715,R. Palmeira,,38.71468270,-9.15000480,,,0,,,
9505,9505,Hosp. Egas Moniz,,38.69859570,-9.18739480,,,0,,,
6705,6705,R. S. Bento,,38.71544910,-9.15432380,,,0,,,
3703,3703,Pç. Eduardo Mondlane,,38.74446270,-9.11322580,,,0,,,
3713,3713,R. Salgueiro Maia,,38.74817070,-9.11293980,,,0,,,
7911,7911,Moscavide (Metro),,38.77464070,-9.10091480,,,0,,,
6037,6037,R. Raul Rego (Escola),,38.78250370,-9.14945680,,,0,,,
6027,6027,Esc. S. Gonçalo,,38.78479270,-9.14949580,,,0,,,
6017,6017,Av. Dr. José Salvado Sampaio,,38.78052470,-9.15302280,,,0,,,
9603,9603,Mosteiro Jerónimos,,38.69734770,-9.20364980,,,0,,,
6007,6007,Charneca,,38.78715170,-9.14211180,,,0,,,
9613,9613,Av. Restelo (Estádio),,38.70037170,-9.20998180,,,0,,,
7725,7725,R. Cidade Benguela (Mercado),,38.76548370,-9.11088880,,,0,,,
7705,7705,Piscina Olivais,,38.76974390,-9.11170010,,,0,,,
7715,7715,Av. Berlim,,38.76744770,-9.11003280,,,0,,,
7007,7007,R. Cesário Verde,,38.72917070,-9.12988580,,,0,,,
7017,7017,Igreja Penha França,,38.72990170,-9.13093680,,,0,,,
8310,8310,Xabregas - R. Manutenção,,38.72631170,-9.11047380,,,0,,,
8320,8320,Xabregas,,38.72594090,-9.11353000,,,0,,,
1901,1901,Campo Pequeno - Av. República,,38.74298570,-9.14674080,,,0,,,
1705,1705,Pç. José Fontana,,38.73064170,-9.14434880,,,0,,,
8841,8841,Alfragide,,38.73813470,-9.21283080,,,0,,,
8811,8811,Buraca,,38.74386970,-9.20551380,,,0,,,
8801,8801,R. Azevinho,,38.73302520,-9.20600480,,,0,,,
8821,8821,Estr. Alfragide (Buraca),,38.74172770,-9.20660180,,,0,,,
2715,2715,Estação Campolide,,38.72996370,-9.16608780,,,0,,,
2705,2705,B. Liberdade,,38.73334120,-9.16896880,,,0,,,
3921,3921,Santos-o-Velho,,38.70706820,-9.15814080,,,0,,,
3901,3901,Santos,,38.70617370,-9.15572680,,,0,,,
3911,3911,Santos-o-Velho,,38.70652570,-9.15793380,,,0,,,
8615,8615,B. Bela Flor,,38.72460170,-9.16964680,,,0,,,
8605,8605,R. D. António Luis Sousa,,38.72532070,-9.16775380,,,0,,,
2017,2017,Campo Grande,,38.75313160,-9.15001720,,,0,,,
2007,2007,Av. Forças Armadas,,38.74805170,-9.15090380,,,0,,,
9801,9801,Cç. Lajes,,38.72566670,-9.11889280,,,0,,,
9811,9811,Av. Inf. D. Henrique (Tipografia),,38.72305770,-9.11304480,,,0,,,
9821,9821,Qta. Peixinhos,,38.72354430,-9.12165270,,,0,,,
3725,3725,Az. Vale Fundão,,38.74364060,-9.10535040,,,0,,,
3705,3705,Pç. Dr. Fernando Amado,,38.74655670,-9.11280380,,,0,,,
3715,3715,Av. Paulo VI (Igreja),,38.74241070,-9.11274580,,,0,,,
8713,8713,Cruz Oliveiras,,38.72553270,-9.19402580,,,0,,,
8703,8703,Av. Tenente Martins,,38.72882570,-9.19051480,,,0,,,
9605,9605,B. Terras Forno,,38.70235880,-9.20664440,,,0,,,
3007,3007,Estação Damaia,,38.74833870,-9.21527280,,,0,,,
3017,3017,Buraca - Av. República,,38.74597270,-9.21237880,,,0,,,
6127,6127,R. Artilharia Um,,38.72591270,-9.15743380,,,0,,,
6117,6117,Palácio Justiça,,38.73064970,-9.15700780,,,0,,,
6107,6107,Cç. Mestres,,38.72651970,-9.16502980,,,0,,,
9713,9713,Av. Restelo,,38.69961770,-9.21365880,,,0,,,
6402,6402,Av. João XXI,,38.74243470,-9.14045380,,,0,,,
8911,8911,R. Eng. Santos Simões,,38.73584970,-9.12562580,,,0,,,
8901,8901,Picheleira (Qta. Lavrado),,38.73265770,-9.12147280,,,0,,,
8921,8921,Olaias,,38.73900170,-9.12326380,,,0,,,
4213,4213,Algés (Mercado),,38.70086910,-9.22796380,,,0,,,
7402,7402,Av. D. Rodrigo Cunha / R. Ed. Noronha,,38.75458370,-9.13161480,,,0,,,
7412,7412,R. Eduardo Noronha / Av. D. Rodr. Cunha,,38.75385670,-9.13175680,,,0,,,
8715,8715,Tribunal Monsanto,,38.73291470,-9.19222680,,,0,,,
8705,8705,Monsanto,,38.73276570,-9.18962180,,,0,,,
2127,2127,Estação Sta. Apolónia (Mercadorias),,38.71644090,-9.11928940,,,0,,,
2117,2117,Panteão Nacional,,38.71458470,-9.12525380,,,0,,,
2107,2107,R. Washington,,38.71784270,-9.12078380,,,0,,,
9901,9901,R. S. Paulo (Bica),,38.70850670,-9.14668280,,,0,,,
8017,8017,Campo Ourique (Prazeres),,38.71428470,-9.16951380,,,0,,,
8007,8007,R. Freitas Gazul,,38.71714770,-9.16981980,,,0,,,
8027,8027,R. Campo Ourique,,38.72067870,-9.16400280,,,0,,,
9705,9705,R. D. Constantino Bragança,,38.70606070,-9.21637980,,,0,,,
9007,9007,Casal Vistoso,,38.74153970,-9.12840580,,,0,,,
1402,1402,Igreja S. Sebastião Pedreira,,38.73159870,-9.15177680,,,0,,,
1412,1412,Av. Marquês Tomar,,38.73631080,-9.14952100,,,0,,,
4504,4504,Campo Cebolas,,38.70880470,-9.13324880,,,0,,,
7223,7223,Chapeleiro 2,,38.79227770,-9.15755980,,,0,,,
7203,7203,Estr. Desvio / R. Prof. J. Pinto Correia,,38.78122070,-9.16295880,,,0,,,
7213,7213,R. Formosinho Sanchez,,38.78048980,-9.16913460,,,0,,,
2412,2412,Passeio Adamastor,,38.75773770,-9.09660180,,,0,,,
2402,2402,Av. Mediterrâneo,,38.76250670,-9.09810180,,,0,,,
5808,5808,Campo Grande (Metro),,38.76133660,-9.15750860,,,0,,,
5818,5818,Inst. Ricardo Jorge,,38.76685970,-9.16404680,,,0,,,
5838,5838,Alto Lumiar (Parque Europa),,38.76645270,-9.15274180,,,0,,,
5504,5504,Pç. Comércio,,38.70795270,-9.13859480,,,0,,,
6818,6818,R. S. Bento / R. Arco,,38.71808770,-9.15550980,,,0,,,
6808,6808,Rato,,38.71974640,-9.15412780,,,0,,,
6504,6504,Jardim Constantino,,38.73082270,-9.13685280,,,0,,,
1203,1203,Marquês Pombal,,38.72587970,-9.14923780,,,0,,,
1213,1213,Marquês Pombal,,38.72609920,-9.15046710,,,0,,,
1223,1223,R. Joaquim António Aguiar,,38.72510770,-9.15529980,,,0,,,
89924,89924,R. Manuel Teixeira Gomes,,38.75164770,-9.10935780,,,0,,,
89925,89925,R. Manuel Teixeira Gomes (Esc. D. Dinis),,38.75205470,-9.11205480,,,0,,,
89926,89926,R. Manuel Teixeira Gomes (Esc. D. Dinis),,38.75153270,-9.11186650,,,0,,,
89927,89927,ISEL,,38.75571110,-9.11376990,,,0,,,
89920,89920,ISEL,,38.75667870,-9.11323380,,,0,,,
89921,89921,R. Tomás Alcaide,,38.75281570,-9.11031980,,,0,,,
89922,89922,R. Tomás Alcaide,,38.75300570,-9.11030680,,,0,,,
89923,89923,R. Manuel Teixeira Gomes,,38.75175070,-9.10948380,,,0,,,
83118,83118,Qta. Ourives,,38.73534970,-9.11543980,,,0,,,
83119,83119,R. Faustino José Rodrigues,,38.73421670,-9.11548180,,,0,,,
83114,83114,R. Gualdim Pais,,38.73113670,-9.11683780,,,0,,,
83115,83115,Az. Salgada,,38.73638940,-9.11312850,,,0,,,
4303,4303,Igreja Cruz Quebrada,,38.70100970,-9.24969580,,,0,,,
83116,83116,Az. Salgada,,38.73609770,-9.11322580,,,0,,,
83117,83117,R. Dr. Manuel Espírito Santo,,38.73506270,-9.11401880,,,0,,,
83110,83110,B. Madre Deus (Escola),,38.73386970,-9.11253380,,,0,,,
83111,83111,Estr. Chelas,,38.73436620,-9.11717770,,,0,,,
7808,7808,Estação Oriente (Interface),,38.76799270,-9.10000280,,,0,,,
83112,83112,Estr. Chelas,,38.73463670,-9.11728980,,,0,,,
83113,83113,R. Gualdim Pais,,38.73125670,-9.11680280,,,0,,,
7504,7504,Av. Mar. Gomes Costa (Qta. Teresinhas),,38.76162870,-9.12181380,,,0,,,
7514,7514,Av. Alm. Gago Coutinho (Rot. Relógio),,38.76211170,-9.12979580,,,0,,,
2223,2223,Estação Braço Prata,,38.74697000,-9.10335000,,,0,,,
2213,2213,Estação Braço Prata,,38.74578970,-9.10471780,,,0,,,
2203,2203,Matinha,,38.74812970,-9.09695080,,,0,,,
8107,8107,R. Domingos Sequeira,,38.71496470,-9.16303480,,,0,,,
9107,9107,Av. General Roçadas,,38.72489070,-9.12848180,,,0,,,
9117,9117,R. Cardal Graça,,38.72020670,-9.12728680,,,0,,,
88104,88104,Alfragide (DGA),,38.73778680,-9.20848880,,,0,,,
9127,9127,R. Angelina Vidal,,38.72231270,-9.13106280,,,0,,,
88105,88105,R. Galegas,,38.73597830,-9.20944730,,,0,,,
88101,88101,R. Galegas,,38.73590140,-9.20918930,,,0,,,
88102,88102,Alfragide (DGA),,38.73767670,-9.20802680,,,0,,,
1504,1504,Pç. Espanha / Av. Berna,,38.73779070,-9.15554280,,,0,,,
1514,1514,Av. Calouste Gulbenkian (Viaduto),,38.73618670,-9.16063780,,,0,,,
7303,7303,R. Francisco L. Fonseca,,38.74945570,-9.13203880,,,0,,,
5806,5806,Campo Grande Norte,,38.75764900,-9.15523230,,,0,,,
5816,5816,Av. Rainha D. Amélia,,38.76660270,-9.15976380,,,0,,,
5826,5826,Campo Grande (Metro),,38.76125550,-9.15719340,,,0,,,
5836,5836,R. M. Marques / R. Agostinho Neto,,38.76458090,-9.15389460,,,0,,,
2808,2808,R. Garridas,,38.74573270,-9.20046980,,,0,,,
21310,21310,Estr. Pimenteira (Casa dos Animais),,38.72313270,-9.18200880,,,0,,,
87101,87101,Espaço Monsanto,,38.74068170,-9.18654980,,,0,,,
8442,8442,R. Chibuto,,38.76092970,-9.11032780,,,0,,,
8402,8402,Av. Cidade L. Marques S,,38.76269770,-9.11973380,,,0,,,
8422,8422,Av. Pádua,,38.76288270,-9.10705680,,,0,,,
6826,6826,Igreja Sta. Isabel,,38.71815470,-9.15817880,,,0,,,
6816,6816,R. Custódio Vieira,,38.72047270,-9.15915080,,,0,,,
6806,6806,R. Braamcamp,,38.72223870,-9.15198180,,,0,,,
3818,3818,R. S. Paulo,,38.70778170,-9.14458580,,,0,,,
5702,5702,Cidade Universitária,,38.75284970,-9.15591580,,,0,,,
5712,5712,Campo Grande - Av. Brasil,,38.75511270,-9.15042080,,,0,,,
30001,30001,Hosp. Luz,,38.75543070,-9.19237580,,,0,,,
9402,9402,Alcântara,,38.70697270,-9.17298680,,,0,,,
6606,6606,R. Luciano Cordeiro,,38.72673870,-9.14576080,,,0,,,
9412,9412,Qta. Cabrinha - Av. Ceuta,,38.71241670,-9.17545780,,,0,,,
9422,9422,R. Possidónio Silva,,38.71049570,-9.17105880,,,0,,,
9432,9432,Qta. Cabrinha - Av. Ceuta,,38.71146100,-9.17452920,,,0,,,
7806,7806,Olivais Velho - Av. Inf. D. Henrique,,38.77036670,-9.10479280,,,0,,,
7816,7816,Estação Oriente (Interface),,38.76776170,-9.10002580,,,0,,,
6722,6722,R. S. Bento / Cç. Estrela,,38.71148570,-9.15318780,,,0,,,
6712,6712,Palácio S. Bento,,38.71226510,-9.15279080,,,0,,,
6702,6702,Assembleia República,,38.71118270,-9.15370380,,,0,,,
7606,7606,R. C (Aeroporto),,38.77451570,-9.12614480,,,0,,,
2313,2313,Av. Inf. D. Henrique / Av. Pádua,,38.76367670,-9.10366480,,,0,,,
7722,7722,R. Cidade Benguela,,38.76594670,-9.11301480,,,0,,,
7702,7702,Av. Cidade L. Marques N,,38.76690570,-9.11988180,,,0,,,
7712,7712,Av. Berlim / Tv. Courelas,,38.76781570,-9.10606380,,,0,,,
8203,8203,Chafariz d'El Rei,,38.70964270,-9.12947380,,,0,,,
3303,3303,R. Beneficência,,38.74314570,-9.15669580,,,0,,,
3313,3313,R. Diogo Macedo (Escola),,38.74567470,-9.15589380,,,0,,,
1806,1806,Av. Duque D'Ávila,,38.73501570,-9.14628480,,,0,,,
79113,79113,Esc. Vasco Gama,,38.77785170,-9.09267680,,,0,,,
79117,79117,Passeio Tejo,,38.78597270,-9.09647380,,,0,,,
30102,30102,R. Guiomar Torresão,,38.75774070,-9.19156080,,,0,,,
9203,9203,Campo Mártires Pátria,,38.72241870,-9.13983680,,,0,,,
79116,79116,Passeio Tejo,,38.78585170,-9.09679280,,,0,,,
30101,30101,Carnide (C. Comercial),,38.75625970,-9.18814480,,,0,,,
9213,9213,Campo Mártires Pátria,,38.72167770,-9.13904880,,,0,,,
79115,79115,Passeio Garças,,38.78190470,-9.09456680,,,0,,,
79114,79114,R. Ilha Amores,,38.78064570,-9.09385480,,,0,,,
79118,79118,R. Chen He,,38.78877270,-9.09844080,,,0,,,
1616,1616,Estr. Benfica (Furnas),,38.74258470,-9.17265680,,,0,,,
1626,1626,Centro Saúde Tílias,,38.74033970,-9.17190680,,,0,,,
2816,2816,Centro Saúde Benfica,,38.74807520,-9.20028880,,,0,,,
2806,2806,Estação Benfica,,38.74503120,-9.19988180,,,0,,,
1702,1702,Av. Fontes P. Melo,,38.72861170,-9.14814080,,,0,,,
1712,1712,Pç. José Fontana,,38.72988370,-9.14349380,,,0,,,
5910,5910,Cç. Carriche / Estr. Militar,,38.77836870,-9.16429280,,,0,,,
5920,5920,R. Prof. M. Valadares,,38.77565900,-9.16009170,,,0,,,
5930,5930,Castanheira Moura,,38.77446410,-9.15689870,,,0,,,
5940,5940,Lumiar,,38.77308470,-9.16142680,,,0,,,
5950,5950,Lumiar (Estr. Torre),,38.77394670,-9.16148180,,,0,,,
4004,4004,Alcântara - Av. 24 Julho,,38.70430670,-9.17394580,,,0,,,
3826,3826,R. Alecrim,,38.70806570,-9.14340080,,,0,,,
3806,3806,Cais Sodré,,38.70633440,-9.14517890,,,0,,,
3816,3816,Mercado Ribeira,,38.70708840,-9.14460440,,,0,,,
8848,8848,Estr. Outeiro,,38.73234370,-9.20317480,,,0,,,
8818,8818,Estr. Alfragide,,38.74084370,-9.20889480,,,0,,,
8808,8808,B. Boavista,,38.73647470,-9.20591480,,,0,,,
8838,8838,Estádio Pina Manique,,38.73649470,-9.20166780,,,0,,,
8828,8828,B. Boavista,,38.73616570,-9.20545480,,,0,,,
5704,5704,Campo Grande - Av. Brasil,,38.75392070,-9.15255980,,,0,,,
8514,8514,R. D. João V,,38.72071370,-9.16071980,,,0,,,
2722,2722,B. Liberdade,,38.73075070,-9.17332080,,,0,,,
2712,2712,Estação Sete Rios,,38.73891850,-9.16845540,,,0,,,
2702,2702,Estação Campolide,,38.73124470,-9.16846680,,,0,,,
3606,3606,Bela Vista (Centro Comercial),,38.74842670,-9.11847980,,,0,,,
9808,9808,Igreja Madre Deus (Museu Azulejo),,38.72447970,-9.11382380,,,0,,,
6724,6724,R. Poiais S. Bento,,38.71077170,-9.15186380,,,0,,,
6714,6714,Pç. Flores,,38.71490970,-9.15155680,,,0,,,
9504,9504,R. Junqueira (Centro Congressos),,38.69979070,-9.18434480,,,0,,,
3722,3722,B. Alfinetes,,38.74186070,-9.10844580,,,0,,,
6704,6704,Palácio S. Bento (Jardim),,38.71348670,-9.15332280,,,0,,,
3702,3702,R. Dinah Silveira Queiroz,,38.74065170,-9.11205280,,,0,,,
3712,3712,B. Salgadas,,38.73843870,-9.11335280,,,0,,,
7910,7910,Moscavide (Metro),,38.77472340,-9.10249160,,,0,,,
6034,6034,R. Raul Rego,,38.78414270,-9.15131280,,,0,,,
6024,6024,B. Sete Céus,,38.78590170,-9.14994480,,,0,,,
6014,6014,Igreja Charneca,,38.78362670,-9.14255180,,,0,,,
7724,7724,R. Cidade Benguela (Mercado),,38.76519070,-9.11091280,,,0,,,
7704,7704,Av. Berlim (Viveiros),,38.76908670,-9.11731380,,,0,,,
7714,7714,Piscina Olivais,,38.76914570,-9.10989380,,,0,,,
7004,7004,Pç. Paiva Couceiro,,38.73120470,-9.12795880,,,0,,,
7014,7014,Pç. Paiva Couceiro,,38.73054870,-9.12748280,,,0,,,
8313,8313,Av. Inf. D. Henrique (Beato ID),,38.73300870,-9.10433480,,,0,,,
8303,8303,Xabregas,,38.72744170,-9.11028780,,,0,,,
8323,8323,Av. Inf. D. Henrique (Ponte Xabregas),,38.72539390,-9.11213900,,,0,,,
1910,1910,Av. 5 Outubro / Av. Álvaro Pais,,38.74345430,-9.14908220,,,0,,,
9303,9303,R. Correia Teles,,38.71889570,-9.17134380,,,0,,,
1704,1704,Picoas,,38.73143570,-9.14632680,,,0,,,
1714,1714,Picoas,,38.73107970,-9.14656780,,,0,,,
2910,2910,B. Sta. Cruz,,38.74783770,-9.20737480,,,0,,,
4002,4002,Alcântara Mar,,38.70295270,-9.17341580,,,0,,,
1004,1004,Restauradores,,38.71563370,-9.14191280,,,0,,,
8846,8846,B. Boavista - Estr. Outeiro,,38.73479870,-9.20193680,,,0,,,
8816,8816,R. Venezuela,,38.74526170,-9.20296680,,,0,,,
8836,8836,Estr. Buraca,,38.74162170,-9.20288980,,,0,,,
8826,8826,Estádio Pina Manique,,38.73562720,-9.20303180,,,0,,,
2724,2724,Serafina,,38.73237470,-9.17268870,,,0,,,
2714,2714,Estação Campolide,,38.72999470,-9.16823880,,,0,,,
2704,2704,Estação Campolide,,38.73084570,-9.16859980,,,0,,,
4106,4106,Cç. Ajuda / R. Gen. João Almeida,,38.70120670,-9.19985180,,,0,,,
3920,3920,R. Esperança (Museu Marioneta),,38.70788520,-9.15584380,,,0,,,
3910,3910,Santos-o-Velho,,38.70643470,-9.15862780,,,0,,,
8606,8606,Cç. Sete Moinhos,,38.72620170,-9.17041880,,,0,,,
2004,2004,Entrecampos,,38.74742370,-9.14843980,,,0,,,
9806,9806,R. Madre Deus,,38.72342170,-9.11529780,,,0,,,
9816,9816,R. Madre Deus,,38.72264070,-9.11565780,,,0,,,
9826,9826,Cç. Lajes (Escola),,38.72165660,-9.11636360,,,0,,,
3724,3724,R. Eduarda Lapa,,38.74114920,-9.10919480,,,0,,,
3704,3704,Esc. Marvila,,38.73991870,-9.11060680,,,0,,,
3714,3714,R. Salgueiro Maia,,38.74804270,-9.11294380,,,0,,,
8712,8712,Estr. Oliveiras Baixo (Bombeiros),,38.72625770,-9.19621880,,,0,,,
8702,8702,Cruz Oliveiras,,38.72534370,-9.19407180,,,0,,,
6032,6032,R. João Amaral,,38.78685670,-9.14968480,,,0,,,
6022,6022,R. Tito Morais,,38.78253470,-9.14741180,,,0,,,
9606,9606,B. Terras Forno,,38.70183320,-9.20635110,,,0,,,
6002,6002,R. João Amaral,,38.78758270,-9.14837400,,,0,,,
3024,3024,R. Bartolomeu Dias,,38.74883970,-9.21846980,,,0,,,
3004,3004,Damaia Cima,,38.74675170,-9.22020580,,,0,,,
3014,3014,Pç. Águas Livres,,38.74708610,-9.21645420,,,0,,,
6126,6126,Av. Calouste Gulbenkian,,38.73225970,-9.16487380,,,0,,,
6116,6116,R. Marquês Fronteira,,38.72953370,-9.15834680,,,0,,,
9712,9712,Av. D. Vasco Gama,,38.70097370,-9.21633480,,,0,,,
